[ 11:42:38.479 ] [27:INFO] cmd: ATS89?*47C6
[ 11:42:38.481 ] [27:INFO] res: \r\n00001\r\n\r\nOK\r\n
[ 11:42:38.482 ] [27:INFO] cmd: AT%GPS=30,2,"RMC","GGA"*D90A
[ 11:42:38.486 ] [27:INFO] res: \r\n%GPS: $GPGGA,114238.000,0100.0000,N,00100.0000,E,1,05,3.0,0.00,M,,,,0000*34\r\n$GPRMC,114238.000,A,0100.0000,N,00100.0000,E,0.00,000.00,200115,,,A*64\r\n\r\nOK\r\n
[ 11:42:39.103 ] [27:INFO] cmd: ATS89?*47C6
[ 11:42:39.105 ] [27:INFO] res: \r\n00004\r\n\r\nOK\r\n
[ 11:42:39.105 ] [27:INFO] cmd: AT%MGRS*04F9
[ 11:42:39.124 ] [27:INFO] res: \r\n%MGRS: "00000007",223.1,3,115,6,20,20\r\n\r\nOK\r\n
[ 11:42:39.126 ] [18:INFO] completed RL msg #7 (SIN=115), status=Success
[ 11:42:39.126 ] [115:INFO] LED 1 is set to  3
[ 11:42:40.493 ] [27:INFO] cmd: ATS89?*47C6
[ 11:42:40.495 ] [27:INFO] res: \r\n00001\r\n\r\nOK\r\n
[ 11:42:40.495 ] [27:INFO] cmd: AT%GPS=30,2,"RMC","GGA"*D90A
[ 11:42:40.500 ] [27:INFO] res: \r\n%GPS: $GPGGA,114240.000,0100.0000,N,00100.0000,E,1,05,3.0,0.00,M,,,,0000*3B\r\n$GPRMC,114240.000,A,0100.0000,N,00100.0000,E,0.00,000.00,200115,,,A*6B\r\n\r\nOK\r\n
[ 11:42:42.507 ] [27:INFO] cmd: ATS89?*47C6
[ 11:42:42.509 ] [27:INFO] res: \r\n00001\r\n\r\nOK\r\n
[ 11:42:42.509 ] [27:INFO] cmd: AT%GPS=30,2,"RMC","GGA"*D90A
[ 11:42:42.513 ] [27:INFO] res: \r\n%GPS: $GPGGA,114242.000,0100.0000,N,00100.0000,E,1,05,3.0,0.00,M,,,,0000*39\r\n$GPRMC,114242.000,A,0100.0000,N,00100.0000,E,0.00,000.00,200115,,,A*69\r\n\r\nOK\r\n
[ 11:42:44.517 ] [27:INFO] cmd: ATS89?*47C6
[ 11:42:44.519 ] [27:INFO] res: \r\n00001\r\n\r\nOK\r\n
[ 11:42:44.520 ] [27:INFO] cmd: AT%GPS=30,2,"RMC","GGA"*D90A
[ 11:42:44.524 ] [27:INFO] res: \r\n%GPS: $GPGGA,114244.000,0100.0000,N,00100.0000,E,1,05,3.0,0.00,M,,,,0000*3F\r\n$GPRMC,114244.000,A,0100.0000,N,00100.0000,E,0.00,000.00,200115,,,A*6F\r\n\r\nOK\r\n
[ 11:42:46.532 ] [27:INFO] cmd: ATS89?*47C6
[ 11:42:46.534 ] [27:INFO] res: \r\n00001\r\n\r\nOK\r\n
[ 11:42:46.534 ] [27:INFO] cmd: AT%GPS=30,2,"RMC","GGA"*D90A
[ 11:42:46.538 ] [27:INFO] res: \r\n%GPS: $GPGGA,114246.000,0100.0000,N,00100.0000,E,1,05,3.0,0.00,M,,,,0000*3D\r\n$GPRMC,114246.000,A,0100.0000,N,00100.0000,E,0.00,000.00,200115,,,A*6D\r\n\r\nOK\r\n
[ 11:42:48.543 ] [27:INFO] cmd: ATS89?*47C6
[ 11:42:48.545 ] [27:INFO] res: \r\n00001\r\n\r\nOK\r\n
[ 11:42:48.546 ] [27:INFO] cmd: AT%GPS=30,2,"RMC","GGA"*D90A
[ 11:42:48.550 ] [27:INFO] res: \r\n%GPS: $GPGGA,114248.000,0100.0000,N,00100.0000,E,1,05,3.0,0.00,M,,,,0000*33\r\n$GPRMC,114248.000,A,0100.0000,N,00100.0000,E,0.00,000.00,200115,,,A*63\r\n\r\nOK\r\n
[ 11:42:50.554 ] [27:INFO] cmd: ATS89?*47C6
[ 11:42:50.556 ] [27:INFO] res: \r\n00001\r\n\r\nOK\r\n
[ 11:42:50.556 ] [27:INFO] cmd: AT%GPS=30,2,"RMC","GGA"*D90A
[ 11:42:50.559 ] [27:INFO] res: \r\n%GPS: $GPGGA,114250.000,0100.0000,N,00100.0000,E,1,05,3.0,0.00,M,,,,0000*3A\r\n$GPRMC,114250.000,A,0100.0000,N,00100.0000,E,0.00,000.00,200115,,,A*6A\r\n\r\nOK\r\n
[ 11:42:52.567 ] [27:INFO] cmd: ATS89?*47C6
[ 11:42:52.573 ] [27:INFO] res: \r\n00001\r\n\r\nOK\r\n
[ 11:42:52.573 ] [27:INFO] cmd: AT%GPS=30,2,"RMC","GGA"*D90A
[ 11:42:52.577 ] [27:INFO] res: \r\n%GPS: $GPGGA,114252.000,0100.0000,N,00100.0000,E,1,05,3.0,0.00,M,,,,0000*38\r\n$GPRMC,114252.000,A,0100.0000,N,00100.0000,E,0.00,000.00,200115,,,A*68\r\n\r\nOK\r\n
[ 11:42:54.579 ] [27:INFO] cmd: ATS89?*47C6
[ 11:42:54.581 ] [27:INFO] res: \r\n00001\r\n\r\nOK\r\n
[ 11:42:54.581 ] [27:INFO] cmd: AT%GPS=30,2,"RMC","GGA"*D90A
[ 11:42:54.583 ] [27:INFO] res: \r\n%GPS: $GPGGA,114254.000,0100.0000,N,00100.0000,E,1,05,3.0,0.00,M,,,,0000*3E\r\n$GPRMC,114254.000,A,0100.0000,N,00100.0000,E,0.00,000.00,200115,,,A*6E\r\n\r\nOK\r\n
[ 11:42:56.593 ] [27:INFO] cmd: ATS89?*47C6
[ 11:42:56.593 ] [27:INFO] res: \r\n00001\r\n\r\nOK\r\n
[ 11:42:56.593 ] [27:INFO] cmd: AT%GPS=30,2,"RMC","GGA"*D90A
[ 11:42:56.593 ] [27:INFO] res: \r\n%GPS: $GPGGA,114256.000,0100.0000,N,00100.0000,E,1,05,3.0,0.00,M,,,,0000*3C\r\n$GPRMC,114256.000,A,0100.0000,N,00100.0000,E,0.00,000.00,200115,,,A*6C\r\n\r\nOK\r\n
[ 11:42:58.603 ] [27:INFO] cmd: ATS89?*47C6
[ 11:42:58.603 ] [27:INFO] res: \r\n00001\r\n\r\nOK\r\n
[ 11:42:58.603 ] [27:INFO] cmd: AT%GPS=30,2,"RMC","GGA"*D90A
[ 11:42:58.603 ] [27:INFO] res: \r\n%GPS: $GPGGA,114258.000,0100.0000,N,00100.0000,E,1,05,3.0,0.00,M,,,,0000*32\r\n$GPRMC,114258.000,A,0100.0000,N,00100.0000,E,0.00,000.00,200115,,,A*62\r\n\r\nOK\r\n
[ 11:43:00.623 ] [27:INFO] cmd: ATS89?*47C6
[ 11:43:00.623 ] [27:INFO] res: \r\n00001\r\n\r\nOK\r\n
[ 11:43:00.623 ] [27:INFO] cmd: AT%GPS=30,2,"RMC","GGA"*D90A
[ 11:43:00.623 ] [27:INFO] res: \r\n%GPS: $GPGGA,114300.000,0100.0000,N,00100.0000,E,1,05,3.0,0.00,M,,,,0000*3E\r\n$GPRMC,114300.000,A,0100.0000,N,00100.0000,E,0.00,000.00,200115,,,A*6E\r\n\r\nOK\r\n
[ 11:43:02.423 ] [27:INFO] cmd: AT%EVNT=3,1*BC22
[ 11:43:02.423 ] [27:INFO] res: \r\n%EVNT: 24,16777215,0,443446980,3,1,4,84360,0,0,0,0,0,0,0,0,0,0,0,0,0,0,0,0,0,0,257,0,0,0,0\r\n\r\nOK\r\n
[ 11:43:02.633 ] [27:INFO] cmd: ATS89?*47C6
[ 11:43:02.643 ] [27:INFO] res: \r\n00001\r\n\r\nOK\r\n
[ 11:43:02.643 ] [27:INFO] cmd: AT%GPS=30,2,"RMC","GGA"*D90A
[ 11:43:02.643 ] [27:INFO] res: \r\n%GPS: $GPGGA,114302.000,0100.0000,N,00100.0000,E,1,05,3.0,0.00,M,,,,0000*3C\r\n$GPRMC,114302.000,A,0100.0000,N,00100.0000,E,0.00,000.00,200115,,,A*6C\r\n\r\nOK\r\n
[ 11:43:04.641 ] [27:INFO] cmd: ATS89?*47C6
[ 11:43:04.643 ] [27:INFO] res: \r\n00001\r\n\r\nOK\r\n
[ 11:43:04.643 ] [27:INFO] cmd: AT%GPS=30,2,"RMC","GGA"*D90A
[ 11:43:04.647 ] [27:INFO] res: \r\n%GPS: $GPGGA,114304.000,0100.0000,N,00100.0000,E,1,05,3.0,0.00,M,,,,0000*3A\r\n$GPRMC,114304.000,A,0100.0000,N,00100.0000,E,0.00,000.00,200115,,,A*6A\r\n\r\nOK\r\n
[ 11:43:06.654 ] [27:INFO] cmd: ATS89?*47C6
[ 11:43:06.656 ] [27:INFO] res: \r\n00001\r\n\r\nOK\r\n
[ 11:43:06.656 ] [27:INFO] cmd: AT%GPS=30,2,"RMC","GGA"*D90A
[ 11:43:06.660 ] [27:INFO] res: \r\n%GPS: $GPGGA,114306.000,0100.0000,N,00100.0000,E,1,05,3.0,0.00,M,,,,0000*38\r\n$GPRMC,114306.000,A,0100.0000,N,00100.0000,E,0.00,000.00,200115,,,A*68\r\n\r\nOK\r\n
[ 11:43:08.666 ] [27:INFO] cmd: ATS89?*47C6
[ 11:43:08.667 ] [27:INFO] res: \r\n00001\r\n\r\nOK\r\n
[ 11:43:08.667 ] [27:INFO] cmd: AT%GPS=30,2,"RMC","GGA"*D90A
[ 11:43:08.669 ] [27:INFO] res: \r\n%GPS: $GPGGA,114308.000,0100.0000,N,00100.0000,E,1,05,3.0,0.00,M,,,,0000*36\r\n$GPRMC,114308.000,A,0100.0000,N,00100.0000,E,0.00,000.00,200115,,,A*66\r\n\r\nOK\r\n
[ 11:43:10.680 ] [27:INFO] cmd: ATS89?*47C6
[ 11:43:10.682 ] [27:INFO] res: \r\n00001\r\n\r\nOK\r\n
[ 11:43:10.682 ] [27:INFO] cmd: AT%GPS=30,2,"RMC","GGA"*D90A
[ 11:43:10.686 ] [27:INFO] res: \r\n%GPS: $GPGGA,114310.000,0100.0000,N,00100.0000,E,1,05,3.0,0.00,M,,,,0000*3F\r\n$GPRMC,114310.000,A,0100.0000,N,00100.0000,E,0.00,000.00,200115,,,A*6F\r\n\r\nOK\r\n
[ 11:43:12.691 ] [27:INFO] cmd: ATS89?*47C6
[ 11:43:12.692 ] [27:INFO] res: \r\n00001\r\n\r\nOK\r\n
[ 11:43:12.692 ] [27:INFO] cmd: AT%GPS=30,2,"RMC","GGA"*D90A
[ 11:43:12.694 ] [27:INFO] res: \r\n%GPS: $GPGGA,114312.000,0100.0000,N,00100.0000,E,1,05,3.0,0.00,M,,,,0000*3D\r\n$GPRMC,114312.000,A,0100.0000,N,00100.0000,E,0.00,000.00,200115,,,A*6D\r\n\r\nOK\r\n
[ 11:43:14.703 ] [27:INFO] cmd: ATS89?*47C6
[ 11:43:14.705 ] [27:INFO] res: \r\n00001\r\n\r\nOK\r\n
[ 11:43:14.706 ] [27:INFO] cmd: AT%GPS=30,2,"RMC","GGA"*D90A
[ 11:43:14.709 ] [27:INFO] res: \r\n%GPS: $GPGGA,114314.000,0100.0000,N,00100.0000,E,1,05,3.0,0.00,M,,,,0000*3B\r\n$GPRMC,114314.000,A,0100.0000,N,00100.0000,E,0.00,000.00,200115,,,A*6B\r\n\r\nOK\r\n
[ 11:43:16.716 ] [27:INFO] cmd: ATS89?*47C6
[ 11:43:16.717 ] [27:INFO] res: \r\n00001\r\n\r\nOK\r\n
[ 11:43:16.718 ] [27:INFO] cmd: AT%GPS=30,2,"RMC","GGA"*D90A
[ 11:43:16.724 ] [27:INFO] res: \r\n%GPS: $GPGGA,114316.000,0100.0000,N,00100.0000,E,1,05,3.0,0.00,M,,,,0000*39\r\n$GPRMC,114316.000,A,0100.0000,N,00100.0000,E,0.00,000.00,200115,,,A*69\r\n\r\nOK\r\n
[ 11:43:18.730 ] [27:INFO] cmd: ATS89?*47C6
[ 11:43:18.731 ] [27:INFO] res: \r\n00001\r\n\r\nOK\r\n
[ 11:43:18.731 ] [27:INFO] cmd: AT%GPS=30,2,"RMC","GGA"*D90A
[ 11:43:18.732 ] [27:INFO] res: \r\n%GPS: $GPGGA,114318.000,0100.0000,N,00100.0000,E,1,05,3.0,0.00,M,,,,0000*37\r\n$GPRMC,114318.000,A,0100.0000,N,00100.0000,E,0.00,000.00,200115,,,A*67\r\n\r\nOK\r\n
[ 11:43:20.741 ] [27:INFO] cmd: ATS89?*47C6
[ 11:43:20.743 ] [27:INFO] res: \r\n00001\r\n\r\nOK\r\n
[ 11:43:20.744 ] [27:INFO] cmd: AT%GPS=30,2,"RMC","GGA"*D90A
[ 11:43:20.749 ] [27:INFO] res: \r\n%GPS: $GPGGA,114320.000,0100.0000,N,00100.0000,E,1,05,3.0,0.00,M,,,,0000*3C\r\n$GPRMC,114320.000,A,0100.0000,N,00100.0000,E,0.00,000.00,200115,,,A*6C\r\n\r\nOK\r\n
[ 11:43:22.762 ] [27:INFO] cmd: ATS89?*47C6
[ 11:43:22.763 ] [27:INFO] res: \r\n00001\r\n\r\nOK\r\n
[ 11:43:22.763 ] [27:INFO] cmd: AT%GPS=30,2,"RMC","GGA"*D90A
[ 11:43:22.766 ] [27:INFO] res: \r\n%GPS: $GPGGA,114322.000,0100.0000,N,00100.0000,E,1,05,3.0,0.00,M,,,,0000*3E\r\n$GPRMC,114322.000,A,0100.0000,N,00100.0000,E,0.00,000.00,200115,,,A*6E\r\n\r\nOK\r\n
[ 11:43:24.768 ] [27:INFO] cmd: ATS89?*47C6
[ 11:43:24.770 ] [27:INFO] res: \r\n00001\r\n\r\nOK\r\n
[ 11:43:24.771 ] [27:INFO] cmd: AT%GPS=30,2,"RMC","GGA"*D90A
[ 11:43:24.774 ] [27:INFO] res: \r\n%GPS: $GPGGA,114324.000,0100.0000,N,00100.0000,E,1,05,3.0,0.00,M,,,,0000*38\r\n$GPRMC,114324.000,A,0100.0000,N,00100.0000,E,0.00,000.00,200115,,,A*68\r\n\r\nOK\r\n
[ 11:43:26.779 ] [27:INFO] cmd: ATS89?*47C6
[ 11:43:26.781 ] [27:INFO] res: \r\n00001\r\n\r\nOK\r\n
[ 11:43:26.781 ] [27:INFO] cmd: AT%GPS=30,2,"RMC","GGA"*D90A
[ 11:43:26.786 ] [27:INFO] res: \r\n%GPS: $GPGGA,114326.000,0100.0000,N,00100.0000,E,1,05,3.0,0.00,M,,,,0000*3A\r\n$GPRMC,114326.000,A,0100.0000,N,00100.0000,E,0.00,000.00,200115,,,A*6A\r\n\r\nOK\r\n
[ 11:43:28.791 ] [27:INFO] cmd: ATS89?*47C6
[ 11:43:28.793 ] [27:INFO] res: \r\n00001\r\n\r\nOK\r\n
[ 11:43:28.793 ] [27:INFO] cmd: AT%GPS=30,2,"RMC","GGA"*D90A
[ 11:43:28.796 ] [27:INFO] res: \r\n%GPS: $GPGGA,114328.000,0100.0000,N,00100.0000,E,1,05,3.0,0.00,M,,,,0000*34\r\n$GPRMC,114328.000,A,0100.0000,N,00100.0000,E,0.00,000.00,200115,,,A*64\r\n\r\nOK\r\n
[ 11:43:30.409 ] [115:INFO] Event GpsBlocked state unchanged
[ 11:43:30.410 ] [27:INFO] cmd: AT%EVNT=3,1*BC22
[ 11:43:30.412 ] [27:INFO] res: \r\n%EVNT: 24,16777215,0,443447010,3,1,4,84420,0,0,0,0,0,0,0,0,0,0,0,0,0,0,0,0,0,0,257,0,0,0,0\r\n\r\nOK\r\n
[ 11:43:30.412 ] [115:INFO] Event 2 debounce state true
[ 11:43:30.803 ] [27:INFO] cmd: ATS89?*47C6
[ 11:43:30.804 ] [27:INFO] res: \r\n00001\r\n\r\nOK\r\n
[ 11:43:30.804 ] [27:INFO] cmd: AT%GPS=30,2,"RMC","GGA"*D90A
[ 11:43:30.807 ] [27:INFO] res: \r\n%GPS: $GPGGA,114330.000,0100.0000,N,00100.0000,E,1,05,3.0,0.00,M,,,,0000*3D\r\n$GPRMC,114330.000,A,0100.0000,N,00100.0000,E,0.00,000.00,200115,,,A*6D\r\n\r\nOK\r\n
[ 11:43:32.408 ] [27:INFO] cmd: AT%EVNT=3,1*BC22
[ 11:43:32.409 ] [27:INFO] res: \r\n%EVNT: 24,16777215,0,443447010,3,1,4,84420,0,0,0,0,0,0,0,0,0,0,0,0,0,0,0,0,0,0,257,0,0,0,0\r\n\r\nOK\r\n
[ 11:43:32.816 ] [27:INFO] cmd: ATS89?*47C6
[ 11:43:32.817 ] [27:INFO] res: \r\n00001\r\n\r\nOK\r\n
[ 11:43:32.817 ] [27:INFO] cmd: AT%GPS=30,2,"RMC","GGA"*D90A
[ 11:43:32.818 ] [27:INFO] res: \r\n%GPS: $GPGGA,114332.000,0100.0000,N,00100.0000,E,1,05,3.0,0.00,M,,,,0000*3F\r\n$GPRMC,114332.000,A,0100.0000,N,00100.0000,E,0.00,000.00,200115,,,A*6F\r\n\r\nOK\r\n
[ 11:43:34.829 ] [27:INFO] cmd: ATS89?*47C6
[ 11:43:34.831 ] [27:INFO] res: \r\n00001\r\n\r\nOK\r\n
[ 11:43:34.831 ] [27:INFO] cmd: AT%GPS=30,2,"RMC","GGA"*D90A
[ 11:43:34.836 ] [27:INFO] res: \r\n%GPS: $GPGGA,114334.000,0100.0000,N,00100.0000,E,1,05,3.0,0.00,M,,,,0000*39\r\n$GPRMC,114334.000,A,0100.0000,N,00100.0000,E,0.00,000.00,200115,,,A*69\r\n\r\nOK\r\n
[ 11:43:36.839 ] [27:INFO] cmd: ATS89?*47C6
[ 11:43:36.841 ] [27:INFO] res: \r\n00001\r\n\r\nOK\r\n
[ 11:43:36.841 ] [27:INFO] cmd: AT%GPS=30,2,"RMC","GGA"*D90A
[ 11:43:36.842 ] [27:INFO] res: \r\n%GPS: $GPGGA,114336.000,0100.0000,N,00100.0000,E,1,05,3.0,0.00,M,,,,0000*3B\r\n$GPRMC,114336.000,A,0100.0000,N,00100.0000,E,0.00,000.00,200115,,,A*6B\r\n\r\nOK\r\n
[ 11:43:38.854 ] [27:INFO] cmd: ATS89?*47C6
[ 11:43:38.856 ] [27:INFO] res: \r\n00001\r\n\r\nOK\r\n
[ 11:43:38.857 ] [27:INFO] cmd: AT%GPS=30,2,"RMC","GGA"*D90A
[ 11:43:38.860 ] [27:INFO] res: \r\n%GPS: $GPGGA,114338.000,0100.0000,N,00100.0000,E,1,05,3.0,0.00,M,,,,0000*35\r\n$GPRMC,114338.000,A,0100.0000,N,00100.0000,E,0.00,000.00,200115,,,A*65\r\n\r\nOK\r\n
[ 11:43:40.868 ] [27:INFO] cmd: ATS89?*47C6
[ 11:43:40.869 ] [27:INFO] res: \r\n00001\r\n\r\nOK\r\n
[ 11:43:40.869 ] [27:INFO] cmd: AT%GPS=30,2,"RMC","GGA"*D90A
[ 11:43:40.870 ] [27:INFO] res: \r\n%GPS: $GPGGA,114340.000,0100.0000,N,00100.0000,E,1,05,3.0,0.00,M,,,,0000*3A\r\n$GPRMC,114340.000,A,0100.0000,N,00100.0000,E,0.00,000.00,200115,,,A*6A\r\n\r\nOK\r\n
[ 11:43:42.877 ] [27:INFO] cmd: ATS89?*47C6
[ 11:43:42.878 ] [27:INFO] res: \r\n00001\r\n\r\nOK\r\n
[ 11:43:42.879 ] [27:INFO] cmd: AT%GPS=30,2,"RMC","GGA"*D90A
[ 11:43:42.881 ] [27:INFO] res: \r\n%GPS: $GPGGA,114342.000,0100.0000,N,00100.0000,E,1,05,3.0,0.00,M,,,,0000*38\r\n$GPRMC,114342.000,A,0100.0000,N,00100.0000,E,0.00,000.00,200115,,,A*68\r\n\r\nOK\r\n
[ 11:43:44.892 ] [27:INFO] cmd: ATS89?*47C6
[ 11:43:44.895 ] [27:INFO] res: \r\n00001\r\n\r\nOK\r\n
[ 11:43:44.895 ] [27:INFO] cmd: AT%GPS=30,2,"RMC","GGA"*D90A
[ 11:43:44.897 ] [27:INFO] res: \r\n%GPS: $GPGGA,114344.000,0100.0000,N,00100.0000,E,1,05,3.0,0.00,M,,,,0000*3E\r\n$GPRMC,114344.000,A,0100.0000,N,00100.0000,E,0.00,000.00,200115,,,A*6E\r\n\r\nOK\r\n
[ 11:43:46.903 ] [27:INFO] cmd: ATS89?*47C6
[ 11:43:46.910 ] [27:INFO] res: \r\n00001\r\n\r\nOK\r\n
[ 11:43:46.913 ] [27:INFO] cmd: AT%GPS=30,2,"RMC","GGA"*D90A
[ 11:43:46.924 ] [27:INFO] res: \r\n%GPS: $GPGGA,114346.000,0100.0000,N,00100.0000,E,1,05,3.0,0.00,M,,,,0000*3C\r\n$GPRMC,114346.000,A,0100.0000,N,00100.0000,E,0.00,000.00,200115,,,A*6C\r\n\r\nOK\r\n
[ 11:43:48.915 ] [27:INFO] cmd: ATS89?*47C6
[ 11:43:48.917 ] [27:INFO] res: \r\n00001\r\n\r\nOK\r\n
[ 11:43:48.917 ] [27:INFO] cmd: AT%GPS=30,2,"RMC","GGA"*D90A
[ 11:43:48.921 ] [27:INFO] res: \r\n%GPS: $GPGGA,114348.000,0100.0000,N,00100.0000,E,1,05,3.0,0.00,M,,,,0000*32\r\n$GPRMC,114348.000,A,0100.0000,N,00100.0000,E,0.00,000.00,200115,,,A*62\r\n\r\nOK\r\n
[ 11:43:50.927 ] [27:INFO] cmd: ATS89?*47C6
[ 11:43:50.930 ] [27:INFO] res: \r\n00001\r\n\r\nOK\r\n
[ 11:43:50.930 ] [27:INFO] cmd: AT%GPS=30,2,"RMC","GGA"*D90A
[ 11:43:50.931 ] [27:INFO] res: \r\n%GPS: $GPGGA,114350.000,0100.0000,N,00100.0000,E,1,05,3.0,0.00,M,,,,0000*3B\r\n$GPRMC,114350.000,A,0100.0000,N,00100.0000,E,0.00,000.00,200115,,,A*6B\r\n\r\nOK\r\n
[ 11:43:52.940 ] [27:INFO] cmd: ATS89?*47C6
[ 11:43:52.942 ] [27:INFO] res: \r\n00001\r\n\r\nOK\r\n
[ 11:43:52.942 ] [27:INFO] cmd: AT%GPS=30,2,"RMC","GGA"*D90A
[ 11:43:52.946 ] [27:INFO] res: \r\n%GPS: $GPGGA,114352.000,0100.0000,N,00100.0000,E,1,05,3.0,0.00,M,,,,0000*39\r\n$GPRMC,114352.000,A,0100.0000,N,00100.0000,E,0.00,000.00,200115,,,A*69\r\n\r\nOK\r\n
[ 11:43:54.954 ] [27:INFO] cmd: ATS89?*47C6
[ 11:43:54.956 ] [27:INFO] res: \r\n00001\r\n\r\nOK\r\n
[ 11:43:54.957 ] [27:INFO] cmd: AT%GPS=30,2,"RMC","GGA"*D90A
[ 11:43:54.963 ] [27:INFO] res: \r\n%GPS: $GPGGA,114354.000,0100.0000,N,00100.0000,E,1,05,3.0,0.00,M,,,,0000*3F\r\n$GPRMC,114354.000,A,0100.0000,N,00100.0000,E,0.00,000.00,200115,,,A*6F\r\n\r\nOK\r\n
[ 11:43:56.986 ] [27:INFO] cmd: ATS89?*47C6
[ 11:43:56.987 ] [27:INFO] res: \r\n00001\r\n\r\nOK\r\n
[ 11:43:56.987 ] [27:INFO] cmd: AT%GPS=30,2,"RMC","GGA"*D90A
[ 11:43:56.988 ] [27:INFO] res: \r\n%GPS: $GPGGA,114356.000,0100.0000,N,00100.0000,E,1,05,3.0,0.00,M,,,,0000*3D\r\n$GPRMC,114356.000,A,0100.0000,N,00100.0000,E,0.00,000.00,200115,,,A*6D\r\n\r\nOK\r\n
[ 11:43:58.991 ] [27:INFO] cmd: ATS89?*47C6
[ 11:43:58.992 ] [27:INFO] res: \r\n00001\r\n\r\nOK\r\n
[ 11:43:58.992 ] [27:INFO] cmd: AT%GPS=30,2,"RMC","GGA"*D90A
[ 11:43:58.994 ] [27:INFO] res: \r\n%GPS: $GPGGA,114358.000,0100.0000,N,00100.0000,E,1,05,3.0,0.00,M,,,,0000*33\r\n$GPRMC,114358.000,A,0100.0000,N,00100.0000,E,0.00,000.00,200115,,,A*63\r\n\r\nOK\r\n
[ 11:44:01.008 ] [27:INFO] cmd: ATS89?*47C6
[ 11:44:01.026 ] [27:INFO] res: \r\n00001\r\n\r\nOK\r\n
[ 11:44:01.029 ] [27:INFO] cmd: AT%GPS=30,2,"RMC","GGA"*D90A
[ 11:44:01.035 ] [27:INFO] res: \r\n%GPS: $GPGGA,114401.000,0100.0000,N,00100.0000,E,1,05,3.0,0.00,M,,,,0000*38\r\n$GPRMC,114401.000,A,0100.0000,N,00100.0000,E,0.00,000.00,200115,,,A*68\r\n\r\nOK\r\n
[ 11:44:02.336 ] [27:INFO] cmd: AT%EVNT=3,1*BC22
[ 11:44:02.339 ] [27:INFO] res: \r\n%EVNT: 24,16777215,0,443447040,3,1,4,84480,0,0,0,0,0,0,0,0,0,0,0,0,0,0,0,0,0,0,257,0,0,0,0\r\n\r\nOK\r\n
[ 11:44:03.018 ] [27:INFO] cmd: ATS89?*47C6
[ 11:44:03.019 ] [27:INFO] res: \r\n00001\r\n\r\nOK\r\n
[ 11:44:03.020 ] [27:INFO] cmd: AT%GPS=30,2,"RMC","GGA"*D90A
[ 11:44:03.022 ] [27:INFO] res: \r\n%GPS: $GPGGA,114403.000,0100.0000,N,00100.0000,E,1,05,3.0,0.00,M,,,,0000*3A\r\n$GPRMC,114403.000,A,0100.0000,N,00100.0000,E,0.00,000.00,200115,,,A*6A\r\n\r\nOK\r\n
[ 11:44:05.039 ] [27:INFO] cmd: ATS89?*47C6
[ 11:44:05.043 ] [27:INFO] res: \r\n00001\r\n\r\nOK\r\n
[ 11:44:05.044 ] [27:INFO] cmd: AT%GPS=30,2,"RMC","GGA"*D90A
[ 11:44:05.051 ] [27:INFO] res: \r\n%GPS: $GPGGA,114405.000,0100.0000,N,00100.0000,E,1,05,3.0,0.00,M,,,,0000*3C\r\n$GPRMC,114405.000,A,0100.0000,N,00100.0000,E,0.00,000.00,200115,,,A*6C\r\n\r\nOK\r\n
[ 11:44:07.044 ] [27:INFO] cmd: ATS89?*47C6
[ 11:44:07.046 ] [27:INFO] res: \r\n00001\r\n\r\nOK\r\n
[ 11:44:07.046 ] [27:INFO] cmd: AT%GPS=30,2,"RMC","GGA"*D90A
[ 11:44:07.053 ] [27:INFO] res: \r\n%GPS: $GPGGA,114407.000,0100.0000,N,00100.0000,E,1,05,3.0,0.00,M,,,,0000*3E\r\n$GPRMC,114407.000,A,0100.0000,N,00100.0000,E,0.00,000.00,200115,,,A*6E\r\n\r\nOK\r\n
[ 11:44:09.054 ] [27:INFO] cmd: ATS89?*47C6
[ 11:44:09.056 ] [27:INFO] res: \r\n00001\r\n\r\nOK\r\n
[ 11:44:09.057 ] [27:INFO] cmd: AT%GPS=30,2,"RMC","GGA"*D90A
[ 11:44:09.061 ] [27:INFO] res: \r\n%GPS: $GPGGA,114409.000,0100.0000,N,00100.0000,E,1,05,3.0,0.00,M,,,,0000*30\r\n$GPRMC,114409.000,A,0100.0000,N,00100.0000,E,0.00,000.00,200115,,,A*60\r\n\r\nOK\r\n
[ 11:44:11.066 ] [27:INFO] cmd: ATS89?*47C6
[ 11:44:11.068 ] [27:INFO] res: \r\n00001\r\n\r\nOK\r\n
[ 11:44:11.068 ] [27:INFO] cmd: AT%GPS=30,2,"RMC","GGA"*D90A
[ 11:44:11.072 ] [27:INFO] res: \r\n%GPS: $GPGGA,114411.000,0100.0000,N,00100.0000,E,1,05,3.0,0.00,M,,,,0000*39\r\n$GPRMC,114411.000,A,0100.0000,N,00100.0000,E,0.00,000.00,200115,,,A*69\r\n\r\nOK\r\n
[ 11:44:13.080 ] [27:INFO] cmd: ATS89?*47C6
[ 11:44:13.083 ] [27:INFO] res: \r\n00001\r\n\r\nOK\r\n
[ 11:44:13.084 ] [27:INFO] cmd: AT%GPS=30,2,"RMC","GGA"*D90A
[ 11:44:13.088 ] [27:INFO] res: \r\n%GPS: $GPGGA,114413.000,0100.0000,N,00100.0000,E,1,05,3.0,0.00,M,,,,0000*3B\r\n$GPRMC,114413.000,A,0100.0000,N,00100.0000,E,0.00,000.00,200115,,,A*6B\r\n\r\nOK\r\n
[ 11:44:15.094 ] [27:INFO] cmd: ATS89?*47C6
[ 11:44:15.096 ] [27:INFO] res: \r\n00001\r\n\r\nOK\r\n
[ 11:44:15.097 ] [27:INFO] cmd: AT%GPS=30,2,"RMC","GGA"*D90A
[ 11:44:15.102 ] [27:INFO] res: \r\n%GPS: $GPGGA,114415.000,0100.0000,N,00100.0000,E,1,05,3.0,0.00,M,,,,0000*3D\r\n$GPRMC,114415.000,A,0100.0000,N,00100.0000,E,0.00,000.00,200115,,,A*6D\r\n\r\nOK\r\n
[ 11:44:17.105 ] [27:INFO] cmd: ATS89?*47C6
[ 11:44:17.107 ] [27:INFO] res: \r\n00001\r\n\r\nOK\r\n
[ 11:44:17.107 ] [27:INFO] cmd: AT%GPS=30,2,"RMC","GGA"*D90A
[ 11:44:17.110 ] [27:INFO] res: \r\n%GPS: $GPGGA,114417.000,0100.0000,N,00100.0000,E,1,05,3.0,0.00,M,,,,0000*3F\r\n$GPRMC,114417.000,A,0100.0000,N,00100.0000,E,0.00,000.00,200115,,,A*6F\r\n\r\nOK\r\n
[ 11:44:19.116 ] [27:INFO] cmd: ATS89?*47C6
[ 11:44:19.117 ] [27:INFO] res: \r\n00001\r\n\r\nOK\r\n
[ 11:44:19.117 ] [27:INFO] cmd: AT%GPS=30,2,"RMC","GGA"*D90A
[ 11:44:19.119 ] [27:INFO] res: \r\n%GPS: $GPGGA,114419.000,0100.0000,N,00100.0000,E,1,05,3.0,0.00,M,,,,0000*31\r\n$GPRMC,114419.000,A,0100.0000,N,00100.0000,E,0.00,000.00,200115,,,A*61\r\n\r\nOK\r\n
[ 11:44:21.130 ] [27:INFO] cmd: ATS89?*47C6
[ 11:44:21.135 ] [27:INFO] res: \r\n00001\r\n\r\nOK\r\n
[ 11:44:21.135 ] [27:INFO] cmd: AT%GPS=30,2,"RMC","GGA"*D90A
[ 11:44:21.139 ] [27:INFO] res: \r\n%GPS: $GPGGA,114421.000,0100.0000,N,00100.0000,E,1,05,3.0,0.00,M,,,,0000*3A\r\n$GPRMC,114421.000,A,0100.0000,N,00100.0000,E,0.00,000.00,200115,,,A*6A\r\n\r\nOK\r\n
[ 11:44:23.142 ] [27:INFO] cmd: ATS89?*47C6
[ 11:44:23.144 ] [27:INFO] res: \r\n00001\r\n\r\nOK\r\n
[ 11:44:23.144 ] [27:INFO] cmd: AT%GPS=30,2,"RMC","GGA"*D90A
[ 11:44:23.148 ] [27:INFO] res: \r\n%GPS: $GPGGA,114423.000,0100.0000,N,00100.0000,E,1,05,3.0,0.00,M,,,,0000*38\r\n$GPRMC,114423.000,A,0100.0000,N,00100.0000,E,0.00,000.00,200115,,,A*68\r\n\r\nOK\r\n
[ 11:44:25.153 ] [27:INFO] cmd: ATS89?*47C6
[ 11:44:25.155 ] [27:INFO] res: \r\n00001\r\n\r\nOK\r\n
[ 11:44:25.155 ] [27:INFO] cmd: AT%GPS=30,2,"RMC","GGA"*D90A
[ 11:44:25.159 ] [27:INFO] res: \r\n%GPS: $GPGGA,114425.000,0100.0000,N,00100.0000,E,1,05,3.0,0.00,M,,,,0000*3E\r\n$GPRMC,114425.000,A,0100.0000,N,00100.0000,E,0.00,000.00,200115,,,A*6E\r\n\r\nOK\r\n
[ 11:44:27.166 ] [27:INFO] cmd: ATS89?*47C6
[ 11:44:27.167 ] [27:INFO] res: \r\n00001\r\n\r\nOK\r\n
[ 11:44:27.167 ] [27:INFO] cmd: AT%GPS=30,2,"RMC","GGA"*D90A
[ 11:44:27.172 ] [27:INFO] res: \r\n%GPS: $GPGGA,114427.000,0100.0000,N,00100.0000,E,1,05,3.0,0.00,M,,,,0000*3C\r\n$GPRMC,114427.000,A,0100.0000,N,00100.0000,E,0.00,000.00,200115,,,A*6C\r\n\r\nOK\r\n
[ 11:44:29.178 ] [27:INFO] cmd: ATS89?*47C6
[ 11:44:29.179 ] [27:INFO] res: \r\n00001\r\n\r\nOK\r\n
[ 11:44:29.179 ] [27:INFO] cmd: AT%GPS=30,2,"RMC","GGA"*D90A
[ 11:44:29.181 ] [27:INFO] res: \r\n%GPS: $GPGGA,114429.000,0100.0000,N,00100.0000,E,1,05,3.0,0.00,M,,,,0000*32\r\n$GPRMC,114429.000,A,0100.0000,N,00100.0000,E,0.00,000.00,200115,,,A*62\r\n\r\nOK\r\n
[ 11:44:30.381 ] [115:INFO] Event GpsBlocked state unchanged
[ 11:44:30.382 ] [27:INFO] cmd: AT%EVNT=3,1*BC22
[ 11:44:30.389 ] [27:INFO] res: \r\n%EVNT: 24,16777215,0,443447070,3,1,4,84540,0,0,0,0,0,0,0,0,0,0,0,0,0,0,0,0,0,0,257,0,0,0,0\r\n\r\nOK\r\n
[ 11:44:30.390 ] [115:INFO] Event 3 changed to true
[ 11:44:30.402 ] [18:INFO] queuing RL msg #9 (SIN=115, bits=156)
[ 11:44:30.404 ] [18:INFO] completed log msg #10 (SIN=115), status=Success
[ 11:44:30.404 ] [18:INFO] sending RL msg #9 trn #1 (SIN=115, bits=156)
[ 11:44:30.405 ] [27:INFO] cmd: AT%MGRT="00000009",3,115,3,Mql8fzoB1MAA6mAAWkeUAAA
[ 11:44:30.405 ] [27:INFO] res: \r\nOK\r\n
[ 11:44:31.207 ] [27:INFO] cmd: ATS89?*47C6
[ 11:44:31.208 ] [27:INFO] res: \r\n00001\r\n\r\nOK\r\n
[ 11:44:31.209 ] [27:INFO] cmd: AT%GPS=30,2,"RMC","GGA"*D90A
[ 11:44:31.212 ] [27:INFO] res: \r\n%GPS: $GPGGA,114431.000,0100.0000,N,00100.0000,E,1,05,3.0,0.00,M,,,,0000*3B\r\n$GPRMC,114431.000,A,0100.0000,N,00100.0000,E,0.00,000.00,200115,,,A*6B\r\n\r\nOK\r\n
[ 11:44:32.313 ] [27:INFO] cmd: AT%EVNT=3,1*BC22
[ 11:44:32.316 ] [27:INFO] res: \r\n%EVNT: 24,16777215,0,443447070,3,1,4,84540,0,0,0,0,0,0,0,0,0,0,0,0,0,0,0,0,0,0,257,0,0,0,0\r\n\r\nOK\r\n
[ 11:44:33.219 ] [27:INFO] cmd: ATS89?*47C6
[ 11:44:33.221 ] [27:INFO] res: \r\n00001\r\n\r\nOK\r\n
[ 11:44:33.221 ] [27:INFO] cmd: AT%GPS=30,2,"RMC","GGA"*D90A
[ 11:44:33.224 ] [27:INFO] res: \r\n%GPS: $GPGGA,114433.000,0100.0000,N,00100.0000,E,1,05,3.0,0.00,M,,,,0000*39\r\n$GPRMC,114433.000,A,0100.0000,N,00100.0000,E,0.00,000.00,200115,,,A*69\r\n\r\nOK\r\n
[ 11:44:35.232 ] [27:INFO] cmd: ATS89?*47C6
[ 11:44:35.238 ] [27:INFO] res: \r\n00001\r\n\r\nOK\r\n
[ 11:44:35.241 ] [27:INFO] cmd: AT%GPS=30,2,"RMC","GGA"*D90A
[ 11:44:35.244 ] [27:INFO] res: \r\n%GPS: $GPGGA,114435.000,0100.0000,N,00100.0000,E,1,05,3.0,0.00,M,,,,0000*3F\r\n$GPRMC,114435.000,A,0100.0000,N,00100.0000,E,0.00,000.00,200115,,,A*6F\r\n\r\nOK\r\n
[ 11:44:35.817 ] [27:INFO] cmd: ATS89?*47C6
[ 11:44:35.818 ] [27:INFO] res: \r\n00004\r\n\r\nOK\r\n
[ 11:44:35.818 ] [27:INFO] cmd: AT%MGRS*04F9
[ 11:44:35.833 ] [27:INFO] res: \r\n%MGRS: "00000009",224.1,3,115,6,20,20\r\n\r\nOK\r\n
[ 11:44:35.834 ] [18:INFO] completed RL msg #9 (SIN=115), status=Success
[ 11:44:35.834 ] [115:INFO] LED 1 is set to  3
[ 11:44:37.248 ] [27:INFO] cmd: ATS89?*47C6
[ 11:44:37.249 ] [27:INFO] res: \r\n00001\r\n\r\nOK\r\n
[ 11:44:37.249 ] [27:INFO] cmd: AT%GPS=30,2,"RMC","GGA"*D90A
[ 11:44:37.250 ] [27:INFO] res: \r\n%GPS: $GPGGA,114437.000,0100.0000,N,00100.0000,E,1,05,3.0,0.00,M,,,,0000*3D\r\n$GPRMC,114437.000,A,0100.0000,N,00100.0000,E,0.00,000.00,200115,,,A*6D\r\n\r\nOK\r\n
[ 11:44:39.255 ] [27:INFO] cmd: ATS89?*47C6
[ 11:44:39.258 ] [27:INFO] res: \r\n00001\r\n\r\nOK\r\n
[ 11:44:39.259 ] [27:INFO] cmd: AT%GPS=30,2,"RMC","GGA"*D90A
[ 11:44:39.260 ] [27:INFO] res: \r\n%GPS: $GPGGA,114439.000,0100.0000,N,00100.0000,E,1,05,3.0,0.00,M,,,,0000*33\r\n$GPRMC,114439.000,A,0100.0000,N,00100.0000,E,0.00,000.00,200115,,,A*63\r\n\r\nOK\r\n
[ 11:44:41.267 ] [27:INFO] cmd: ATS89?*47C6
[ 11:44:41.268 ] [27:INFO] res: \r\n00001\r\n\r\nOK\r\n
[ 11:44:41.268 ] [27:INFO] cmd: AT%GPS=30,2,"RMC","GGA"*D90A
[ 11:44:41.270 ] [27:INFO] res: \r\n%GPS: $GPGGA,114441.000,0100.0000,N,00100.0000,E,1,05,3.0,0.00,M,,,,0000*3C\r\n$GPRMC,114441.000,A,0100.0000,N,00100.0000,E,0.00,000.00,200115,,,A*6C\r\n\r\nOK\r\n
[ 11:44:43.282 ] [27:INFO] cmd: ATS89?*47C6
[ 11:44:43.284 ] [27:INFO] res: \r\n00001\r\n\r\nOK\r\n
[ 11:44:43.284 ] [27:INFO] cmd: AT%GPS=30,2,"RMC","GGA"*D90A
[ 11:44:43.286 ] [27:INFO] res: \r\n%GPS: $GPGGA,114443.000,0100.0000,N,00100.0000,E,1,05,3.0,0.00,M,,,,0000*3E\r\n$GPRMC,114443.000,A,0100.0000,N,00100.0000,E,0.00,000.00,200115,,,A*6E\r\n\r\nOK\r\n
[ 11:44:45.292 ] [27:INFO] cmd: ATS89?*47C6
[ 11:44:45.293 ] [27:INFO] res: \r\n00001\r\n\r\nOK\r\n
[ 11:44:45.293 ] [27:INFO] cmd: AT%GPS=30,2,"RMC","GGA"*D90A
[ 11:44:45.294 ] [27:INFO] res: \r\n%GPS: $GPGGA,114445.000,0100.0000,N,00100.0000,E,1,05,3.0,0.00,M,,,,0000*38\r\n$GPRMC,114445.000,A,0100.0000,N,00100.0000,E,0.00,000.00,200115,,,A*68\r\n\r\nOK\r\n
[ 11:44:47.306 ] [27:INFO] cmd: ATS89?*47C6
[ 11:44:47.307 ] [27:INFO] res: \r\n00001\r\n\r\nOK\r\n
[ 11:44:47.307 ] [27:INFO] cmd: AT%GPS=30,2,"RMC","GGA"*D90A
[ 11:44:47.309 ] [27:INFO] res: \r\n%GPS: $GPGGA,114447.000,0100.0000,N,00100.0000,E,1,05,3.0,0.00,M,,,,0000*3A\r\n$GPRMC,114447.000,A,0100.0000,N,00100.0000,E,0.00,000.00,200115,,,A*6A\r\n\r\nOK\r\n
[ 11:44:49.316 ] [27:INFO] cmd: ATS89?*47C6
[ 11:44:49.317 ] [27:INFO] res: \r\n00001\r\n\r\nOK\r\n
[ 11:44:49.317 ] [27:INFO] cmd: AT%GPS=30,2,"RMC","GGA"*D90A
[ 11:44:49.319 ] [27:INFO] res: \r\n%GPS: $GPGGA,114449.000,0100.0000,N,00100.0000,E,1,05,3.0,0.00,M,,,,0000*34\r\n$GPRMC,114449.000,A,0100.0000,N,00100.0000,E,0.00,000.00,200115,,,A*64\r\n\r\nOK\r\n
[ 11:44:51.332 ] [27:INFO] cmd: ATS89?*47C6
[ 11:44:51.333 ] [27:INFO] res: \r\n00001\r\n\r\nOK\r\n
[ 11:44:51.334 ] [27:INFO] cmd: AT%GPS=30,2,"RMC","GGA"*D90A
[ 11:44:51.336 ] [27:INFO] res: \r\n%GPS: $GPGGA,114451.000,0100.0000,N,00100.0000,E,1,05,3.0,0.00,M,,,,0000*3D\r\n$GPRMC,114451.000,A,0100.0000,N,00100.0000,E,0.00,000.00,200115,,,A*6D\r\n\r\nOK\r\n
[ 11:44:53.342 ] [27:INFO] cmd: ATS89?*47C6
[ 11:44:53.343 ] [27:INFO] res: \r\n00001\r\n\r\nOK\r\n
[ 11:44:53.343 ] [27:INFO] cmd: AT%GPS=30,2,"RMC","GGA"*D90A
[ 11:44:53.344 ] [27:INFO] res: \r\n%GPS: $GPGGA,114453.000,0100.0000,N,00100.0000,E,1,05,3.0,0.00,M,,,,0000*3F\r\n$GPRMC,114453.000,A,0100.0000,N,00100.0000,E,0.00,000.00,200115,,,A*6F\r\n\r\nOK\r\n
[ 11:44:55.361 ] [27:INFO] cmd: ATS89?*47C6
[ 11:44:55.364 ] [27:INFO] res: \r\n00001\r\n\r\nOK\r\n
[ 11:44:55.365 ] [27:INFO] cmd: AT%GPS=30,2,"RMC","GGA"*D90A
[ 11:44:55.368 ] [27:INFO] res: \r\n%GPS: $GPGGA,114455.000,0100.0000,N,00100.0000,E,1,05,3.0,0.00,M,,,,0000*39\r\n$GPRMC,114455.000,A,0100.0000,N,00100.0000,E,0.00,000.00,200115,,,A*69\r\n\r\nOK\r\n
[ 11:44:57.374 ] [27:INFO] cmd: ATS89?*47C6
[ 11:44:57.380 ] [27:INFO] res: \r\n00001\r\n\r\nOK\r\n
[ 11:44:57.382 ] [27:INFO] cmd: AT%GPS=30,2,"RMC","GGA"*D90A
[ 11:44:57.387 ] [27:INFO] res: \r\n%GPS: $GPGGA,114457.000,0100.0000,N,00100.0000,E,1,05,3.0,0.00,M,,,,0000*3B\r\n$GPRMC,114457.000,A,0100.0000,N,00100.0000,E,0.00,000.00,200115,,,A*6B\r\n\r\nOK\r\n
[ 11:44:59.384 ] [27:INFO] cmd: ATS89?*47C6
[ 11:44:59.385 ] [27:INFO] res: \r\n00001\r\n\r\nOK\r\n
[ 11:44:59.385 ] [27:INFO] cmd: AT%GPS=30,2,"RMC","GGA"*D90A
[ 11:44:59.386 ] [27:INFO] res: \r\n%GPS: $GPGGA,114459.000,0100.0000,N,00100.0000,E,1,05,3.0,0.00,M,,,,0000*35\r\n$GPRMC,114459.000,A,0100.0000,N,00100.0000,E,0.00,000.00,200115,,,A*65\r\n\r\nOK\r\n
[ 11:45:01.392 ] [27:INFO] cmd: ATS89?*47C6
[ 11:45:01.394 ] [27:INFO] res: \r\n00001\r\n\r\nOK\r\n
[ 11:45:01.394 ] [27:INFO] cmd: AT%GPS=30,2,"RMC","GGA"*D90A
[ 11:45:01.403 ] [27:INFO] res: \r\n%GPS: $GPGGA,114501.000,0100.0000,N,00100.0000,E,1,05,3.0,0.00,M,,,,0000*39\r\n$GPRMC,114501.000,A,0100.0000,N,00100.0000,E,0.00,000.00,200115,,,A*69\r\n\r\nOK\r\n
[ 11:45:02.305 ] [27:INFO] cmd: AT%EVNT=3,1*BC22
[ 11:45:02.307 ] [27:INFO] res: \r\n%EVNT: 24,16777215,0,443447100,3,1,4,84600,0,0,0,0,0,0,0,0,0,0,0,0,0,0,0,0,0,0,257,0,0,0,0\r\n\r\nOK\r\n
[ 11:45:03.407 ] [27:INFO] cmd: ATS89?*47C6
[ 11:45:03.408 ] [27:INFO] res: \r\n00001\r\n\r\nOK\r\n
[ 11:45:03.408 ] [27:INFO] cmd: AT%GPS=30,2,"RMC","GGA"*D90A
[ 11:45:03.410 ] [27:INFO] res: \r\n%GPS: $GPGGA,114503.000,0100.0000,N,00100.0000,E,1,05,3.0,0.00,M,,,,0000*3B\r\n$GPRMC,114503.000,A,0100.0000,N,00100.0000,E,0.00,000.00,200115,,,A*6B\r\n\r\nOK\r\n
[ 11:45:05.417 ] [27:INFO] cmd: ATS89?*47C6
[ 11:45:05.421 ] [27:INFO] res: \r\n00001\r\n\r\nOK\r\n
[ 11:45:05.422 ] [27:INFO] cmd: AT%GPS=30,2,"RMC","GGA"*D90A
[ 11:45:05.423 ] [27:INFO] res: \r\n%GPS: $GPGGA,114505.000,0100.0000,N,00100.0000,E,1,05,3.0,0.00,M,,,,0000*3D\r\n$GPRMC,114505.000,A,0100.0000,N,00100.0000,E,0.00,000.00,200115,,,A*6D\r\n\r\nOK\r\n
[ 11:45:07.430 ] [27:INFO] cmd: ATS89?*47C6
[ 11:45:07.433 ] [27:INFO] res: \r\n00001\r\n\r\nOK\r\n
[ 11:45:07.433 ] [27:INFO] cmd: AT%GPS=30,2,"RMC","GGA"*D90A
[ 11:45:07.437 ] [27:INFO] res: \r\n%GPS: $GPGGA,114507.000,0100.0000,N,00100.0000,E,1,05,3.0,0.00,M,,,,0000*3F\r\n$GPRMC,114507.000,A,0100.0000,N,00100.0000,E,0.00,000.00,200115,,,A*6F\r\n\r\nOK\r\n
[ 11:45:09.443 ] [27:INFO] cmd: ATS89?*47C6
[ 11:45:09.448 ] [27:INFO] res: \r\n00001\r\n\r\nOK\r\n
[ 11:45:09.448 ] [27:INFO] cmd: AT%GPS=30,2,"RMC","GGA"*D90A
[ 11:45:09.451 ] [27:INFO] res: \r\n%GPS: $GPGGA,114509.000,0100.0000,N,00100.0000,E,1,05,3.0,0.00,M,,,,0000*31\r\n$GPRMC,114509.000,A,0100.0000,N,00100.0000,E,0.00,000.00,200115,,,A*61\r\n\r\nOK\r\n
[ 11:45:11.458 ] [27:INFO] cmd: ATS89?*47C6
[ 11:45:11.467 ] [27:INFO] res: \r\n00001\r\n\r\nOK\r\n
[ 11:45:11.469 ] [27:INFO] cmd: AT%GPS=30,2,"RMC","GGA"*D90A
[ 11:45:11.473 ] [27:INFO] res: \r\n%GPS: $GPGGA,114511.000,0100.0000,N,00100.0000,E,1,05,3.0,0.00,M,,,,0000*38\r\n$GPRMC,114511.000,A,0100.0000,N,00100.0000,E,0.00,000.00,200115,,,A*68\r\n\r\nOK\r\n
[ 11:45:13.468 ] [27:INFO] cmd: ATS89?*47C6
[ 11:45:13.470 ] [27:INFO] res: \r\n00001\r\n\r\nOK\r\n
[ 11:45:13.471 ] [27:INFO] cmd: AT%GPS=30,2,"RMC","GGA"*D90A
[ 11:45:13.474 ] [27:INFO] res: \r\n%GPS: $GPGGA,114513.000,0100.0000,N,00100.0000,E,1,05,3.0,0.00,M,,,,0000*3A\r\n$GPRMC,114513.000,A,0100.0000,N,00100.0000,E,0.00,000.00,200115,,,A*6A\r\n\r\nOK\r\n
[ 11:45:15.479 ] [27:INFO] cmd: ATS89?*47C6
[ 11:45:15.480 ] [27:INFO] res: \r\n00001\r\n\r\nOK\r\n
[ 11:45:15.481 ] [27:INFO] cmd: AT%GPS=30,2,"RMC","GGA"*D90A
[ 11:45:15.485 ] [27:INFO] res: \r\n%GPS: $GPGGA,114515.000,0100.0000,N,00100.0000,E,1,05,3.0,0.00,M,,,,0000*3C\r\n$GPRMC,114515.000,A,0100.0000,N,00100.0000,E,0.00,000.00,200115,,,A*6C\r\n\r\nOK\r\n
[ 11:45:17.494 ] [27:INFO] cmd: ATS89?*47C6
[ 11:45:17.496 ] [27:INFO] res: \r\n00001\r\n\r\nOK\r\n
[ 11:45:17.496 ] [27:INFO] cmd: AT%GPS=30,2,"RMC","GGA"*D90A
[ 11:45:17.500 ] [27:INFO] res: \r\n%GPS: $GPGGA,114517.000,0100.0000,N,00100.0000,E,1,05,3.0,0.00,M,,,,0000*3E\r\n$GPRMC,114517.000,A,0100.0000,N,00100.0000,E,0.00,000.00,200115,,,A*6E\r\n\r\nOK\r\n
[ 11:45:19.507 ] [27:INFO] cmd: ATS89?*47C6
[ 11:45:19.510 ] [27:INFO] res: \r\n00001\r\n\r\nOK\r\n
[ 11:45:19.510 ] [27:INFO] cmd: AT%GPS=30,2,"RMC","GGA"*D90A
[ 11:45:19.520 ] [27:INFO] res: \r\n%GPS: $GPGGA,114519.000,0100.0000,N,00100.0000,E,1,05,3.0,0.00,M,,,,0000*30\r\n$GPRMC,114519.000,A,0100.0000,N,00100.0000,E,0.00,000.00,200115,,,A*60\r\n\r\nOK\r\n
[ 11:45:21.516 ] [27:INFO] cmd: ATS89?*47C6
[ 11:45:21.518 ] [27:INFO] res: \r\n00001\r\n\r\nOK\r\n
[ 11:45:21.518 ] [27:INFO] cmd: AT%GPS=30,2,"RMC","GGA"*D90A
[ 11:45:21.522 ] [27:INFO] res: \r\n%GPS: $GPGGA,114521.000,0100.0000,N,00100.0000,E,1,05,3.0,0.00,M,,,,0000*3B\r\n$GPRMC,114521.000,A,0100.0000,N,00100.0000,E,0.00,000.00,200115,,,A*6B\r\n\r\nOK\r\n
[ 11:45:23.528 ] [27:INFO] cmd: ATS89?*47C6
[ 11:45:23.530 ] [27:INFO] res: \r\n00001\r\n\r\nOK\r\n
[ 11:45:23.530 ] [27:INFO] cmd: AT%GPS=30,2,"RMC","GGA"*D90A
[ 11:45:23.533 ] [27:INFO] res: \r\n%GPS: $GPGGA,114523.000,0100.0000,N,00100.0000,E,1,05,3.0,0.00,M,,,,0000*39\r\n$GPRMC,114523.000,A,0100.0000,N,00100.0000,E,0.00,000.00,200115,,,A*69\r\n\r\nOK\r\n
[ 11:45:25.541 ] [27:INFO] cmd: ATS89?*47C6
[ 11:45:25.542 ] [27:INFO] res: \r\n00001\r\n\r\nOK\r\n
[ 11:45:25.542 ] [27:INFO] cmd: AT%GPS=30,2,"RMC","GGA"*D90A
[ 11:45:25.544 ] [27:INFO] res: \r\n%GPS: $GPGGA,114525.000,0100.0000,N,00100.0000,E,1,05,3.0,0.00,M,,,,0000*3F\r\n$GPRMC,114525.000,A,0100.0000,N,00100.0000,E,0.00,000.00,200115,,,A*6F\r\n\r\nOK\r\n
[ 11:45:27.553 ] [27:INFO] cmd: ATS89?*47C6
[ 11:45:27.554 ] [27:INFO] res: \r\n00001\r\n\r\nOK\r\n
[ 11:45:27.554 ] [27:INFO] cmd: AT%GPS=30,2,"RMC","GGA"*D90A
[ 11:45:27.555 ] [27:INFO] res: \r\n%GPS: $GPGGA,114527.000,0100.0000,N,00100.0000,E,1,05,3.0,0.00,M,,,,0000*3D\r\n$GPRMC,114527.000,A,0100.0000,N,00100.0000,E,0.00,000.00,200115,,,A*6D\r\n\r\nOK\r\n
[ 11:45:29.567 ] [27:INFO] cmd: ATS89?*47C6
[ 11:45:29.569 ] [27:INFO] res: \r\n00001\r\n\r\nOK\r\n
[ 11:45:29.569 ] [27:INFO] cmd: AT%GPS=30,2,"RMC","GGA"*D90A
[ 11:45:29.572 ] [27:INFO] res: \r\n%GPS: $GPGGA,114529.000,0100.0000,N,00100.0000,E,1,05,3.0,0.00,M,,,,0000*33\r\n$GPRMC,114529.000,A,0100.0000,N,00100.0000,E,0.00,000.00,200115,,,A*63\r\n\r\nOK\r\n
[ 11:45:30.375 ] [27:INFO] cmd: AT%EVNT=3,1*BC22
[ 11:45:30.378 ] [27:INFO] res: \r\n%EVNT: 24,16777215,0,443447125,3,1,4,84650,0,0,0,0,0,0,0,0,0,0,0,0,0,0,0,0,0,0,257,0,0,0,0\r\n\r\nOK\r\n
[ 11:45:30.379 ] [115:INFO] Event 2 changed to true
[ 11:45:30.394 ] [18:INFO] queuing RL msg #11 (SIN=115, bits=156)
[ 11:45:30.397 ] [18:INFO] completed log msg #12 (SIN=115), status=Success
[ 11:45:30.397 ] [115:INFO] LED 3 is set to  0
[ 11:45:30.398 ] [115:INFO] Event GpsBlocked state unchanged
[ 11:45:30.398 ] [18:INFO] sending RL msg #11 trn #1 (SIN=115, bits=156)
[ 11:45:30.399 ] [27:INFO] cmd: AT%EVNT=3,1*BC22
[ 11:45:30.401 ] [27:INFO] res: \r\n%EVNT: 24,16777215,0,443447125,3,1,4,84650,0,0,0,0,0,0,0,0,0,0,0,0,0,0,0,0,0,0,257,0,0,0,0\r\n\r\nOK\r\n
[ 11:45:30.402 ] [27:INFO] cmd: AT%MGRT="0000000B",3,115,3,Mql8f7IB1MAA6mAAWkeUAAA
[ 11:45:30.402 ] [115:INFO] Event IdpBlocked state unchanged
[ 11:45:30.403 ] [27:INFO] res: \r\nOK\r\n
[ 11:45:31.579 ] [27:INFO] cmd: ATS89?*47C6
[ 11:45:31.581 ] [27:INFO] res: \r\n00001\r\n\r\nOK\r\n
[ 11:45:31.582 ] [27:INFO] cmd: AT%GPS=30,2,"RMC","GGA"*D90A
[ 11:45:31.585 ] [27:INFO] res: \r\n%GPS: $GPGGA,114531.000,0100.0000,N,00100.0000,E,1,05,3.0,0.00,M,,,,0000*3A\r\n$GPRMC,114531.000,A,0100.0000,N,00100.0000,E,0.00,000.00,200115,,,A*6A\r\n\r\nOK\r\n
[ 11:45:32.288 ] [27:INFO] cmd: AT%EVNT=3,1*BC22
[ 11:45:32.291 ] [27:INFO] res: \r\n%EVNT: 24,16777215,0,443447130,3,1,4,84660,0,0,0,0,0,0,0,0,0,0,0,0,0,0,0,0,0,0,257,0,0,0,0\r\n\r\nOK\r\n
[ 11:45:33.591 ] [27:INFO] cmd: ATS89?*47C6
[ 11:45:33.593 ] [27:INFO] res: \r\n00001\r\n\r\nOK\r\n
[ 11:45:33.593 ] [27:INFO] cmd: AT%GPS=30,2,"RMC","GGA"*D90A
[ 11:45:33.597 ] [27:INFO] res: \r\n%GPS: $GPGGA,114533.000,0100.0000,N,00100.0000,E,1,05,3.0,0.00,M,,,,0000*38\r\n$GPRMC,114533.000,A,0100.0000,N,00100.0000,E,0.00,000.00,200115,,,A*68\r\n\r\nOK\r\n
[ 11:45:35.604 ] [27:INFO] cmd: ATS89?*47C6
[ 11:45:35.605 ] [27:INFO] res: \r\n00001\r\n\r\nOK\r\n
[ 11:45:35.606 ] [27:INFO] cmd: AT%GPS=30,2,"RMC","GGA"*D90A
[ 11:45:35.609 ] [27:INFO] res: \r\n%GPS: $GPGGA,114535.000,0100.0000,N,00100.0000,E,1,05,3.0,0.00,M,,,,0000*3E\r\n$GPRMC,114535.000,A,0100.0000,N,00100.0000,E,0.00,000.00,200115,,,A*6E\r\n\r\nOK\r\n
[ 11:45:35.635 ] [27:INFO] cmd: ATS89?*47C6
[ 11:45:35.636 ] [27:INFO] res: \r\n00004\r\n\r\nOK\r\n
[ 11:45:35.637 ] [27:INFO] cmd: AT%MGRS*04F9
[ 11:45:35.642 ] [27:INFO] res: \r\n%MGRS: "0000000B",225.1,3,115,6,20,20\r\n\r\nOK\r\n
[ 11:45:35.644 ] [18:INFO] completed RL msg #11 (SIN=115), status=Success
[ 11:45:35.644 ] [115:INFO] LED 1 is set to  3
[ 11:45:37.617 ] [27:INFO] cmd: ATS89?*47C6
[ 11:45:37.619 ] [27:INFO] res: \r\n00001\r\n\r\nOK\r\n
[ 11:45:37.620 ] [27:INFO] cmd: AT%GPS=30,2,"RMC","GGA"*D90A
[ 11:45:37.624 ] [27:INFO] res: \r\n%GPS: $GPGGA,114537.000,0100.0000,N,00100.0000,E,1,05,3.0,0.00,M,,,,0000*3C\r\n$GPRMC,114537.000,A,0100.0000,N,00100.0000,E,0.00,000.00,200115,,,A*6C\r\n\r\nOK\r\n
[ 11:45:39.628 ] [27:INFO] cmd: ATS89?*47C6
[ 11:45:39.630 ] [27:INFO] res: \r\n00001\r\n\r\nOK\r\n
[ 11:45:39.630 ] [27:INFO] cmd: AT%GPS=30,2,"RMC","GGA"*D90A
[ 11:45:39.634 ] [27:INFO] res: \r\n%GPS: $GPGGA,114539.000,0100.0000,N,00100.0000,E,1,05,3.0,0.00,M,,,,0000*32\r\n$GPRMC,114539.000,A,0100.0000,N,00100.0000,E,0.00,000.00,200115,,,A*62\r\n\r\nOK\r\n
[ 11:45:41.642 ] [27:INFO] cmd: ATS89?*47C6
[ 11:45:41.644 ] [27:INFO] res: \r\n00001\r\n\r\nOK\r\n
[ 11:45:41.644 ] [27:INFO] cmd: AT%GPS=30,2,"RMC","GGA"*D90A
[ 11:45:41.649 ] [27:INFO] res: \r\n%GPS: $GPGGA,114541.000,0100.0000,N,00100.0000,E,1,05,3.0,0.00,M,,,,0000*3D\r\n$GPRMC,114541.000,A,0100.0000,N,00100.0000,E,0.00,000.00,200115,,,A*6D\r\n\r\nOK\r\n
[ 11:45:43.653 ] [27:INFO] cmd: ATS89?*47C6
[ 11:45:43.655 ] [27:INFO] res: \r\n00001\r\n\r\nOK\r\n
[ 11:45:43.659 ] [27:INFO] cmd: AT%GPS=30,2,"RMC","GGA"*D90A
[ 11:45:43.662 ] [27:INFO] res: \r\n%GPS: $GPGGA,114543.000,0100.0000,N,00100.0000,E,1,05,3.0,0.00,M,,,,0000*3F\r\n$GPRMC,114543.000,A,0100.0000,N,00100.0000,E,0.00,000.00,200115,,,A*6F\r\n\r\nOK\r\n
[ 11:45:45.667 ] [27:INFO] cmd: ATS89?*47C6
[ 11:45:45.668 ] [27:INFO] res: \r\n00001\r\n\r\nOK\r\n
[ 11:45:45.668 ] [27:INFO] cmd: AT%GPS=30,2,"RMC","GGA"*D90A
[ 11:45:45.670 ] [27:INFO] res: \r\n%GPS: $GPGGA,114545.000,0100.0000,N,00100.0000,E,1,05,3.0,0.00,M,,,,0000*39\r\n$GPRMC,114545.000,A,0100.0000,N,00100.0000,E,0.00,000.00,200115,,,A*69\r\n\r\nOK\r\n
[ 11:45:47.678 ] [27:INFO] cmd: ATS89?*47C6
[ 11:45:47.680 ] [27:INFO] res: \r\n00001\r\n\r\nOK\r\n
[ 11:45:47.680 ] [27:INFO] cmd: AT%GPS=30,2,"RMC","GGA"*D90A
[ 11:45:47.684 ] [27:INFO] res: \r\n%GPS: $GPGGA,114547.000,0100.0000,N,00100.0000,E,1,05,3.0,0.00,M,,,,0000*3B\r\n$GPRMC,114547.000,A,0100.0000,N,00100.0000,E,0.00,000.00,200115,,,A*6B\r\n\r\nOK\r\n
[ 11:45:49.690 ] [27:INFO] cmd: ATS89?*47C6
[ 11:45:49.692 ] [27:INFO] res: \r\n00001\r\n\r\nOK\r\n
[ 11:45:49.692 ] [27:INFO] cmd: AT%GPS=30,2,"RMC","GGA"*D90A
[ 11:45:49.695 ] [27:INFO] res: \r\n%GPS: $GPGGA,114549.000,0100.0000,N,00100.0000,E,1,05,3.0,0.00,M,,,,0000*35\r\n$GPRMC,114549.000,A,0100.0000,N,00100.0000,E,0.00,000.00,200115,,,A*65\r\n\r\nOK\r\n
[ 11:45:51.704 ] [27:INFO] cmd: ATS89?*47C6
[ 11:45:51.706 ] [27:INFO] res: \r\n00001\r\n\r\nOK\r\n
[ 11:45:51.706 ] [27:INFO] cmd: AT%GPS=30,2,"RMC","GGA"*D90A
[ 11:45:51.710 ] [27:INFO] res: \r\n%GPS: $GPGGA,114551.000,0100.0000,N,00100.0000,E,1,05,3.0,0.00,M,,,,0000*3C\r\n$GPRMC,114551.000,A,0100.0000,N,00100.0000,E,0.00,000.00,200115,,,A*6C\r\n\r\nOK\r\n
[ 11:45:53.716 ] [27:INFO] cmd: ATS89?*47C6
[ 11:45:53.718 ] [27:INFO] res: \r\n00001\r\n\r\nOK\r\n
[ 11:45:53.718 ] [27:INFO] cmd: AT%GPS=30,2,"RMC","GGA"*D90A
[ 11:45:53.725 ] [27:INFO] res: \r\n%GPS: $GPGGA,114553.000,0100.0000,N,00100.0000,E,1,05,3.0,0.00,M,,,,0000*3E\r\n$GPRMC,114553.000,A,0100.0000,N,00100.0000,E,0.00,000.00,200115,,,A*6E\r\n\r\nOK\r\n
[ 11:45:54.026 ] [26:INFO] CLI Cmd: [prop get VMS]
[ 11:45:55.726 ] [27:INFO] cmd: ATS89?*47C6
[ 11:45:55.727 ] [27:INFO] res: \r\n00001\r\n\r\nOK\r\n
[ 11:45:55.727 ] [27:INFO] cmd: AT%GPS=30,2,"RMC","GGA"*D90A
[ 11:45:55.728 ] [27:INFO] res: \r\n%GPS: $GPGGA,114555.000,0100.0000,N,00100.0000,E,1,05,3.0,0.00,M,,,,0000*38\r\n$GPRMC,114555.000,A,0100.0000,N,00100.0000,E,0.00,000.00,200115,,,A*68\r\n\r\nOK\r\n
[ 11:45:57.742 ] [27:INFO] cmd: ATS89?*47C6
[ 11:45:57.744 ] [27:INFO] res: \r\n00001\r\n\r\nOK\r\n
[ 11:45:57.744 ] [27:INFO] cmd: AT%GPS=30,2,"RMC","GGA"*D90A
[ 11:45:57.751 ] [27:INFO] res: \r\n%GPS: $GPGGA,114557.000,0100.0000,N,00100.0000,E,1,05,3.0,0.00,M,,,,0000*3A\r\n$GPRMC,114557.000,A,0100.0000,N,00100.0000,E,0.00,000.00,200115,,,A*6A\r\n\r\nOK\r\n
[ 11:45:59.752 ] [27:INFO] cmd: ATS89?*47C6
[ 11:45:59.754 ] [27:INFO] res: \r\n00001\r\n\r\nOK\r\n
[ 11:45:59.754 ] [27:INFO] cmd: AT%GPS=30,2,"RMC","GGA"*D90A
[ 11:45:59.758 ] [27:INFO] res: \r\n%GPS: $GPGGA,114559.000,0100.0000,N,00100.0000,E,1,05,3.0,0.00,M,,,,0000*34\r\n$GPRMC,114559.000,A,0100.0000,N,00100.0000,E,0.00,000.00,200115,,,A*64\r\n\r\nOK\r\n
[ 11:46:01.765 ] [27:INFO] cmd: ATS89?*47C6
[ 11:46:01.767 ] [27:INFO] res: \r\n00001\r\n\r\nOK\r\n
[ 11:46:01.767 ] [27:INFO] cmd: AT%GPS=30,2,"RMC","GGA"*D90A
[ 11:46:01.771 ] [27:INFO] res: \r\n%GPS: $GPGGA,114601.000,0100.0000,N,00100.0000,E,1,05,3.0,0.00,M,,,,0000*3A\r\n$GPRMC,114601.000,A,0100.0000,N,00100.0000,E,0.00,000.00,200115,,,A*6A\r\n\r\nOK\r\n
[ 11:46:02.274 ] [27:INFO] cmd: AT%EVNT=3,1*BC22
[ 11:46:02.277 ] [27:INFO] res: \r\n%EVNT: 24,16777215,0,443447160,3,1,4,84720,0,0,0,0,0,0,0,0,0,0,0,0,0,0,0,0,0,0,257,0,0,0,0\r\n\r\nOK\r\n
[ 11:46:03.777 ] [27:INFO] cmd: ATS89?*47C6
[ 11:46:03.779 ] [27:INFO] res: \r\n00001\r\n\r\nOK\r\n
[ 11:46:03.780 ] [27:INFO] cmd: AT%GPS=30,2,"RMC","GGA"*D90A
[ 11:46:03.783 ] [27:INFO] res: \r\n%GPS: $GPGGA,114603.000,0100.0000,N,00100.0000,E,1,05,3.0,0.00,M,,,,0000*38\r\n$GPRMC,114603.000,A,0100.0000,N,00100.0000,E,0.00,000.00,200115,,,A*68\r\n\r\nOK\r\n
[ 11:46:05.790 ] [27:INFO] cmd: ATS89?*47C6
[ 11:46:05.792 ] [27:INFO] res: \r\n00001\r\n\r\nOK\r\n
[ 11:46:05.792 ] [27:INFO] cmd: AT%GPS=30,2,"RMC","GGA"*D90A
[ 11:46:05.795 ] [27:INFO] res: \r\n%GPS: $GPGGA,114605.000,0100.0000,N,00100.0000,E,1,05,3.0,0.00,M,,,,0000*3E\r\n$GPRMC,114605.000,A,0100.0000,N,00100.0000,E,0.00,000.00,200115,,,A*6E\r\n\r\nOK\r\n
[ 11:46:07.802 ] [27:INFO] cmd: ATS89?*47C6
[ 11:46:07.804 ] [27:INFO] res: \r\n00001\r\n\r\nOK\r\n
[ 11:46:07.805 ] [27:INFO] cmd: AT%GPS=30,2,"RMC","GGA"*D90A
[ 11:46:07.809 ] [27:INFO] res: \r\n%GPS: $GPGGA,114607.000,0100.0000,N,00100.0000,E,1,05,3.0,0.00,M,,,,0000*3C\r\n$GPRMC,114607.000,A,0100.0000,N,00100.0000,E,0.00,000.00,200115,,,A*6C\r\n\r\nOK\r\n
[ 11:46:09.815 ] [27:INFO] cmd: ATS89?*47C6
[ 11:46:09.817 ] [27:INFO] res: \r\n00001\r\n\r\nOK\r\n
[ 11:46:09.817 ] [27:INFO] cmd: AT%GPS=30,2,"RMC","GGA"*D90A
[ 11:46:09.820 ] [27:INFO] res: \r\n%GPS: $GPGGA,114609.000,0100.0000,N,00100.0000,E,1,05,3.0,0.00,M,,,,0000*32\r\n$GPRMC,114609.000,A,0100.0000,N,00100.0000,E,0.00,000.00,200115,,,A*62\r\n\r\nOK\r\n
[ 11:46:11.834 ] [27:INFO] cmd: ATS89?*47C6
[ 11:46:11.834 ] [27:INFO] res: \r\n00001\r\n\r\nOK\r\n
[ 11:46:11.834 ] [27:INFO] cmd: AT%GPS=30,2,"RMC","GGA"*D90A
[ 11:46:11.834 ] [27:INFO] res: \r\n%GPS: $GPGGA,114611.000,0100.0000,N,00100.0000,E,1,05,3.0,0.00,M,,,,0000*3B\r\n$GPRMC,114611.000,A,0100.0000,N,00100.0000,E,0.00,000.00,200115,,,A*6B\r\n\r\nOK\r\n
[ 11:46:13.844 ] [27:INFO] cmd: ATS89?*47C6
[ 11:46:13.844 ] [27:INFO] res: \r\n00001\r\n\r\nOK\r\n
[ 11:46:13.844 ] [27:INFO] cmd: AT%GPS=30,2,"RMC","GGA"*D90A
[ 11:46:13.844 ] [27:INFO] res: \r\n%GPS: $GPGGA,114613.000,0100.0000,N,00100.0000,E,1,05,3.0,0.00,M,,,,0000*39\r\n$GPRMC,114613.000,A,0100.0000,N,00100.0000,E,0.00,000.00,200115,,,A*69\r\n\r\nOK\r\n
[ 11:46:15.854 ] [27:INFO] cmd: ATS89?*47C6
[ 11:46:15.854 ] [27:INFO] res: \r\n00001\r\n\r\nOK\r\n
[ 11:46:15.854 ] [27:INFO] cmd: AT%GPS=30,2,"RMC","GGA"*D90A
[ 11:46:15.854 ] [27:INFO] res: \r\n%GPS: $GPGGA,114615.000,0100.0000,N,00100.0000,E,1,05,3.0,0.00,M,,,,0000*3F\r\n$GPRMC,114615.000,A,0100.0000,N,00100.0000,E,0.00,000.00,200115,,,A*6F\r\n\r\nOK\r\n
[ 11:46:17.864 ] [27:INFO] cmd: ATS89?*47C6
[ 11:46:17.864 ] [27:INFO] res: \r\n00001\r\n\r\nOK\r\n
[ 11:46:17.864 ] [27:INFO] cmd: AT%GPS=30,2,"RMC","GGA"*D90A
[ 11:46:17.864 ] [27:INFO] res: \r\n%GPS: $GPGGA,114617.000,0100.0000,N,00100.0000,E,1,05,3.0,0.00,M,,,,0000*3D\r\n$GPRMC,114617.000,A,0100.0000,N,00100.0000,E,0.00,000.00,200115,,,A*6D\r\n\r\nOK\r\n
[ 11:46:19.884 ] [27:INFO] cmd: ATS89?*47C6
[ 11:46:19.884 ] [27:INFO] res: \r\n00001\r\n\r\nOK\r\n
[ 11:46:19.884 ] [27:INFO] cmd: AT%GPS=30,2,"RMC","GGA"*D90A
[ 11:46:19.884 ] [27:INFO] res: \r\n%GPS: $GPGGA,114619.000,0100.0000,N,00100.0000,E,1,05,3.0,0.00,M,,,,0000*33\r\n$GPRMC,114619.000,A,0100.0000,N,00100.0000,E,0.00,000.00,200115,,,A*63\r\n\r\nOK\r\n
[ 11:46:21.894 ] [27:INFO] cmd: ATS89?*47C6
[ 11:46:21.894 ] [27:INFO] res: \r\n00001\r\n\r\nOK\r\n
[ 11:46:21.894 ] [27:INFO] cmd: AT%GPS=30,2,"RMC","GGA"*D90A
[ 11:46:21.894 ] [27:INFO] res: \r\n%GPS: $GPGGA,114621.000,0100.0000,N,00100.0000,E,1,05,3.0,0.00,M,,,,0000*38\r\n$GPRMC,114621.000,A,0100.0000,N,00100.0000,E,0.00,000.00,200115,,,A*68\r\n\r\nOK\r\n
[ 11:46:23.904 ] [27:INFO] cmd: ATS89?*47C6
[ 11:46:23.904 ] [27:INFO] res: \r\n00001\r\n\r\nOK\r\n
[ 11:46:23.904 ] [27:INFO] cmd: AT%GPS=30,2,"RMC","GGA"*D90A
[ 11:46:23.904 ] [27:INFO] res: \r\n%GPS: $GPGGA,114623.000,0100.0000,N,00100.0000,E,1,05,3.0,0.00,M,,,,0000*3A\r\n$GPRMC,114623.000,A,0100.0000,N,00100.0000,E,0.00,000.00,200115,,,A*6A\r\n\r\nOK\r\n
[ 11:46:25.914 ] [27:INFO] cmd: ATS89?*47C6
[ 11:46:25.914 ] [27:INFO] res: \r\n00001\r\n\r\nOK\r\n
[ 11:46:25.914 ] [27:INFO] cmd: AT%GPS=30,2,"RMC","GGA"*D90A
[ 11:46:25.914 ] [27:INFO] res: \r\n%GPS: $GPGGA,114625.000,0100.0000,N,00100.0000,E,1,05,3.0,0.00,M,,,,0000*3C\r\n$GPRMC,114625.000,A,0100.0000,N,00100.0000,E,0.00,000.00,200115,,,A*6C\r\n\r\nOK\r\n
[ 11:46:27.934 ] [27:INFO] cmd: ATS89?*47C6
[ 11:46:27.934 ] [27:INFO] res: \r\n00001\r\n\r\nOK\r\n
[ 11:46:27.934 ] [27:INFO] cmd: AT%GPS=30,2,"RMC","GGA"*D90A
[ 11:46:27.934 ] [27:INFO] res: \r\n%GPS: $GPGGA,114627.000,0100.0000,N,00100.0000,E,1,05,3.0,0.00,M,,,,0000*3E\r\n$GPRMC,114627.000,A,0100.0000,N,00100.0000,E,0.00,000.00,200115,,,A*6E\r\n\r\nOK\r\n
[ 11:46:29.944 ] [27:INFO] cmd: ATS89?*47C6
[ 11:46:29.944 ] [27:INFO] res: \r\n00001\r\n\r\nOK\r\n
[ 11:46:29.944 ] [27:INFO] cmd: AT%GPS=30,2,"RMC","GGA"*D90A
[ 11:46:29.944 ] [27:INFO] res: \r\n%GPS: $GPGGA,114629.000,0100.0000,N,00100.0000,E,1,05,3.0,0.00,M,,,,0000*30\r\n$GPRMC,114629.000,A,0100.0000,N,00100.0000,E,0.00,000.00,200115,,,A*60\r\n\r\nOK\r\n
[ 11:46:30.344 ] [115:INFO] Event GpsBlocked state unchanged
[ 11:46:30.344 ] [27:INFO] cmd: AT%EVNT=3,1*BC22
[ 11:46:30.344 ] [27:INFO] res: \r\n%EVNT: 24,16777215,0,443447185,3,1,4,84770,0,0,0,0,0,0,0,0,0,0,0,0,0,0,0,0,0,0,257,0,0,0,0\r\n\r\nOK\r\n
[ 11:46:30.344 ] [115:INFO] Event IdpBlocked state unchanged
[ 11:46:31.954 ] [27:INFO] cmd: ATS89?*47C6
[ 11:46:31.954 ] [27:INFO] res: \r\n00001\r\n\r\nOK\r\n
[ 11:46:31.954 ] [27:INFO] cmd: AT%GPS=30,2,"RMC","GGA"*D90A
[ 11:46:31.954 ] [27:INFO] res: \r\n%GPS: $GPGGA,114631.000,0100.0000,N,00100.0000,E,1,05,3.0,0.00,M,,,,0000*39\r\n$GPRMC,114631.000,A,0100.0000,N,00100.0000,E,0.00,000.00,200115,,,A*69\r\n\r\nOK\r\n
[ 11:46:33.964 ] [27:INFO] cmd: ATS89?*47C6
[ 11:46:33.964 ] [27:INFO] res: \r\n00001\r\n\r\nOK\r\n
[ 11:46:33.964 ] [27:INFO] cmd: AT%GPS=30,2,"RMC","GGA"*D90A
[ 11:46:33.964 ] [27:INFO] res: \r\n%GPS: $GPGGA,114633.000,0100.0000,N,00100.0000,E,1,05,3.0,0.00,M,,,,0000*3B\r\n$GPRMC,114633.000,A,0100.0000,N,00100.0000,E,0.00,000.00,200115,,,A*6B\r\n\r\nOK\r\n
[ 11:46:35.984 ] [27:INFO] cmd: ATS89?*47C6
[ 11:46:35.984 ] [27:INFO] res: \r\n00001\r\n\r\nOK\r\n
[ 11:46:35.984 ] [27:INFO] cmd: AT%GPS=30,2,"RMC","GGA"*D90A
[ 11:46:35.984 ] [27:INFO] res: \r\n%GPS: $GPGGA,114635.000,0100.0000,N,00100.0000,E,1,05,3.0,0.00,M,,,,0000*3D\r\n$GPRMC,114635.000,A,0100.0000,N,00100.0000,E,0.00,000.00,200115,,,A*6D\r\n\r\nOK\r\n
[ 11:46:37.994 ] [27:INFO] cmd: ATS89?*47C6
[ 11:46:37.994 ] [27:INFO] res: \r\n00001\r\n\r\nOK\r\n
[ 11:46:37.994 ] [27:INFO] cmd: AT%GPS=30,2,"RMC","GGA"*D90A
[ 11:46:38.004 ] [27:INFO] res: \r\n%GPS: $GPGGA,114638.000,0100.0000,N,00100.0000,E,1,05,3.0,0.00,M,,,,0000*30\r\n$GPRMC,114638.000,A,0100.0000,N,00100.0000,E,0.00,000.00,200115,,,A*60\r\n\r\nOK\r\n
[ 11:46:40.004 ] [27:INFO] cmd: ATS89?*47C6
[ 11:46:40.004 ] [27:INFO] res: \r\n00001\r\n\r\nOK\r\n
[ 11:46:40.004 ] [27:INFO] cmd: AT%GPS=30,2,"RMC","GGA"*D90A
[ 11:46:40.004 ] [27:INFO] res: \r\n%GPS: $GPGGA,114640.000,0100.0000,N,00100.0000,E,1,05,3.0,0.00,M,,,,0000*3F\r\n$GPRMC,114640.000,A,0100.0000,N,00100.0000,E,0.00,000.00,200115,,,A*6F\r\n\r\nOK\r\n
[ 11:46:42.014 ] [27:INFO] cmd: ATS89?*47C6
[ 11:46:42.014 ] [27:INFO] res: \r\n00001\r\n\r\nOK\r\n
[ 11:46:42.014 ] [27:INFO] cmd: AT%GPS=30,2,"RMC","GGA"*D90A
[ 11:46:42.014 ] [27:INFO] res: \r\n%GPS: $GPGGA,114642.000,0100.0000,N,00100.0000,E,1,05,3.0,0.00,M,,,,0000*3D\r\n$GPRMC,114642.000,A,0100.0000,N,00100.0000,E,0.00,000.00,200115,,,A*6D\r\n\r\nOK\r\n
[ 11:46:44.024 ] [27:INFO] cmd: ATS89?*47C6
[ 11:46:44.024 ] [27:INFO] res: \r\n00001\r\n\r\nOK\r\n
[ 11:46:44.024 ] [27:INFO] cmd: AT%GPS=30,2,"RMC","GGA"*D90A
[ 11:46:44.024 ] [27:INFO] res: \r\n%GPS: $GPGGA,114644.000,0100.0000,N,00100.0000,E,1,05,3.0,0.00,M,,,,0000*3B\r\n$GPRMC,114644.000,A,0100.0000,N,00100.0000,E,0.00,000.00,200115,,,A*6B\r\n\r\nOK\r\n
[ 11:46:46.044 ] [27:INFO] cmd: ATS89?*47C6
[ 11:46:46.044 ] [27:INFO] res: \r\n00001\r\n\r\nOK\r\n
[ 11:46:46.044 ] [27:INFO] cmd: AT%GPS=30,2,"RMC","GGA"*D90A
[ 11:46:46.044 ] [27:INFO] res: \r\n%GPS: $GPGGA,114646.000,0100.0000,N,00100.0000,E,1,05,3.0,0.00,M,,,,0000*39\r\n$GPRMC,114646.000,A,0100.0000,N,00100.0000,E,0.00,000.00,200115,,,A*69\r\n\r\nOK\r\n
[ 11:46:48.054 ] [27:INFO] cmd: ATS89?*47C6
[ 11:46:48.054 ] [27:INFO] res: \r\n00001\r\n\r\nOK\r\n
[ 11:46:48.054 ] [27:INFO] cmd: AT%GPS=30,2,"RMC","GGA"*D90A
[ 11:46:48.054 ] [27:INFO] res: \r\n%GPS: $GPGGA,114648.000,0100.0000,N,00100.0000,E,1,05,3.0,0.00,M,,,,0000*37\r\n$GPRMC,114648.000,A,0100.0000,N,00100.0000,E,0.00,000.00,200115,,,A*67\r\n\r\nOK\r\n
[ 11:46:50.064 ] [27:INFO] cmd: ATS89?*47C6
[ 11:46:50.064 ] [27:INFO] res: \r\n00001\r\n\r\nOK\r\n
[ 11:46:50.064 ] [27:INFO] cmd: AT%GPS=30,2,"RMC","GGA"*D90A
[ 11:46:50.064 ] [27:INFO] res: \r\n%GPS: $GPGGA,114650.000,0100.0000,N,00100.0000,E,1,05,3.0,0.00,M,,,,0000*3E\r\n$GPRMC,114650.000,A,0100.0000,N,00100.0000,E,0.00,000.00,200115,,,A*6E\r\n\r\nOK\r\n
[ 11:46:52.074 ] [27:INFO] cmd: ATS89?*47C6
[ 11:46:52.074 ] [27:INFO] res: \r\n00001\r\n\r\nOK\r\n
[ 11:46:52.074 ] [27:INFO] cmd: AT%GPS=30,2,"RMC","GGA"*D90A
[ 11:46:52.074 ] [27:INFO] res: \r\n%GPS: $GPGGA,114652.000,0100.0000,N,00100.0000,E,1,05,3.0,0.00,M,,,,0000*3C\r\n$GPRMC,114652.000,A,0100.0000,N,00100.0000,E,0.00,000.00,200115,,,A*6C\r\n\r\nOK\r\n
[ 11:46:54.094 ] [27:INFO] cmd: ATS89?*47C6
[ 11:46:54.094 ] [27:INFO] res: \r\n00001\r\n\r\nOK\r\n
[ 11:46:54.094 ] [27:INFO] cmd: AT%GPS=30,2,"RMC","GGA"*D90A
[ 11:46:54.104 ] [27:INFO] res: \r\n%GPS: $GPGGA,114654.000,0100.0000,N,00100.0000,E,1,05,3.0,0.00,M,,,,0000*3A\r\n$GPRMC,114654.000,A,0100.0000,N,00100.0000,E,0.00,000.00,200115,,,A*6A\r\n\r\nOK\r\n
[ 11:46:56.104 ] [27:INFO] cmd: ATS89?*47C6
[ 11:46:56.104 ] [27:INFO] res: \r\n00001\r\n\r\nOK\r\n
[ 11:46:56.114 ] [27:INFO] cmd: AT%GPS=30,2,"RMC","GGA"*D90A
[ 11:46:56.114 ] [27:INFO] res: \r\n%GPS: $GPGGA,114656.000,0100.0000,N,00100.0000,E,1,05,3.0,0.00,M,,,,0000*38\r\n$GPRMC,114656.000,A,0100.0000,N,00100.0000,E,0.00,000.00,200115,,,A*68\r\n\r\nOK\r\n
[ 11:46:58.114 ] [27:INFO] cmd: ATS89?*47C6
[ 11:46:58.114 ] [27:INFO] res: \r\n00001\r\n\r\nOK\r\n
[ 11:46:58.114 ] [27:INFO] cmd: AT%GPS=30,2,"RMC","GGA"*D90A
[ 11:46:58.124 ] [27:INFO] res: \r\n%GPS: $GPGGA,114658.000,0100.0000,N,00100.0000,E,1,05,3.0,0.00,M,,,,0000*36\r\n$GPRMC,114658.000,A,0100.0000,N,00100.0000,E,0.00,000.00,200115,,,A*66\r\n\r\nOK\r\n
[ 11:47:00.124 ] [27:INFO] cmd: ATS89?*47C6
[ 11:47:00.124 ] [27:INFO] res: \r\n00001\r\n\r\nOK\r\n
[ 11:47:00.124 ] [27:INFO] cmd: AT%GPS=30,2,"RMC","GGA"*D90A
[ 11:47:00.124 ] [27:INFO] res: \r\n%GPS: $GPGGA,114700.000,0100.0000,N,00100.0000,E,1,05,3.0,0.00,M,,,,0000*3A\r\n$GPRMC,114700.000,A,0100.0000,N,00100.0000,E,0.00,000.00,200115,,,A*6A\r\n\r\nOK\r\n
[ 11:47:02.144 ] [27:INFO] cmd: ATS89?*47C6
[ 11:47:02.144 ] [27:INFO] res: \r\n00001\r\n\r\nOK\r\n
[ 11:47:02.144 ] [27:INFO] cmd: AT%GPS=30,2,"RMC","GGA"*D90A
[ 11:47:02.144 ] [27:INFO] res: \r\n%GPS: $GPGGA,114702.000,0100.0000,N,00100.0000,E,1,05,3.0,0.00,M,,,,0000*38\r\n$GPRMC,114702.000,A,0100.0000,N,00100.0000,E,0.00,000.00,200115,,,A*68\r\n\r\nOK\r\n
[ 11:47:04.154 ] [27:INFO] cmd: ATS89?*47C6
[ 11:47:04.154 ] [27:INFO] res: \r\n00001\r\n\r\nOK\r\n
[ 11:47:04.154 ] [27:INFO] cmd: AT%GPS=30,2,"RMC","GGA"*D90A
[ 11:47:04.154 ] [27:INFO] res: \r\n%GPS: $GPGGA,114704.000,0100.0000,N,00100.0000,E,1,05,3.0,0.00,M,,,,0000*3E\r\n$GPRMC,114704.000,A,0100.0000,N,00100.0000,E,0.00,000.00,200115,,,A*6E\r\n\r\nOK\r\n
[ 11:47:06.164 ] [27:INFO] cmd: ATS89?*47C6
[ 11:47:06.164 ] [27:INFO] res: \r\n00001\r\n\r\nOK\r\n
[ 11:47:06.164 ] [27:INFO] cmd: AT%GPS=30,2,"RMC","GGA"*D90A
[ 11:47:06.164 ] [27:INFO] res: \r\n%GPS: $GPGGA,114706.000,0100.0000,N,00100.0000,E,1,05,3.0,0.00,M,,,,0000*3C\r\n$GPRMC,114706.000,A,0100.0000,N,00100.0000,E,0.00,000.00,200115,,,A*6C\r\n\r\nOK\r\n
[ 11:47:08.174 ] [27:INFO] cmd: ATS89?*47C6
[ 11:47:08.174 ] [27:INFO] res: \r\n00001\r\n\r\nOK\r\n
[ 11:47:08.174 ] [27:INFO] cmd: AT%GPS=30,2,"RMC","GGA"*D90A
[ 11:47:08.174 ] [27:INFO] res: \r\n%GPS: $GPGGA,114708.000,0100.0000,N,00100.0000,E,1,05,3.0,0.00,M,,,,0000*32\r\n$GPRMC,114708.000,A,0100.0000,N,00100.0000,E,0.00,000.00,200115,,,A*62\r\n\r\nOK\r\n
[ 11:47:10.194 ] [27:INFO] cmd: ATS89?*47C6
[ 11:47:10.194 ] [27:INFO] res: \r\n00001\r\n\r\nOK\r\n
[ 11:47:10.194 ] [27:INFO] cmd: AT%GPS=30,2,"RMC","GGA"*D90A
[ 11:47:10.204 ] [27:INFO] res: \r\n%GPS: $GPGGA,114710.000,0100.0000,N,00100.0000,E,1,05,3.0,0.00,M,,,,0000*3B\r\n$GPRMC,114710.000,A,0100.0000,N,00100.0000,E,0.00,000.00,200115,,,A*6B\r\n\r\nOK\r\n
[ 11:47:12.204 ] [27:INFO] cmd: ATS89?*47C6
[ 11:47:12.204 ] [27:INFO] res: \r\n00001\r\n\r\nOK\r\n
[ 11:47:12.204 ] [27:INFO] cmd: AT%GPS=30,2,"RMC","GGA"*D90A
[ 11:47:12.204 ] [27:INFO] res: \r\n%GPS: $GPGGA,114712.000,0100.0000,N,00100.0000,E,1,05,3.0,0.00,M,,,,0000*39\r\n$GPRMC,114712.000,A,0100.0000,N,00100.0000,E,0.00,000.00,200115,,,A*69\r\n\r\nOK\r\n
[ 11:47:14.214 ] [27:INFO] cmd: ATS89?*47C6
[ 11:47:14.214 ] [27:INFO] res: \r\n00001\r\n\r\nOK\r\n
[ 11:47:14.214 ] [27:INFO] cmd: AT%GPS=30,2,"RMC","GGA"*D90A
[ 11:47:14.214 ] [27:INFO] res: \r\n%GPS: $GPGGA,114714.000,0100.0000,N,00100.0000,E,1,05,3.0,0.00,M,,,,0000*3F\r\n$GPRMC,114714.000,A,0100.0000,N,00100.0000,E,0.00,000.00,200115,,,A*6F\r\n\r\nOK\r\n
[ 11:47:16.224 ] [27:INFO] cmd: ATS89?*47C6
[ 11:47:16.224 ] [27:INFO] res: \r\n00001\r\n\r\nOK\r\n
[ 11:47:16.224 ] [27:INFO] cmd: AT%GPS=30,2,"RMC","GGA"*D90A
[ 11:47:16.224 ] [27:INFO] res: \r\n%GPS: $GPGGA,114716.000,0100.0000,N,00100.0000,E,1,05,3.0,0.00,M,,,,0000*3D\r\n$GPRMC,114716.000,A,0100.0000,N,00100.0000,E,0.00,000.00,200115,,,A*6D\r\n\r\nOK\r\n
[ 11:47:18.244 ] [27:INFO] cmd: ATS89?*47C6
[ 11:47:18.244 ] [27:INFO] res: \r\n00001\r\n\r\nOK\r\n
[ 11:47:18.244 ] [27:INFO] cmd: AT%GPS=30,2,"RMC","GGA"*D90A
[ 11:47:18.244 ] [27:INFO] res: \r\n%GPS: $GPGGA,114718.000,0100.0000,N,00100.0000,E,1,05,3.0,0.00,M,,,,0000*33\r\n$GPRMC,114718.000,A,0100.0000,N,00100.0000,E,0.00,000.00,200115,,,A*63\r\n\r\nOK\r\n
[ 11:47:20.254 ] [27:INFO] cmd: ATS89?*47C6
[ 11:47:20.254 ] [27:INFO] res: \r\n00001\r\n\r\nOK\r\n
[ 11:47:20.254 ] [27:INFO] cmd: AT%GPS=30,2,"RMC","GGA"*D90A
[ 11:47:20.254 ] [27:INFO] res: \r\n%GPS: $GPGGA,114720.000,0100.0000,N,00100.0000,E,1,05,3.0,0.00,M,,,,0000*38\r\n$GPRMC,114720.000,A,0100.0000,N,00100.0000,E,0.00,000.00,200115,,,A*68\r\n\r\nOK\r\n
[ 11:47:22.264 ] [27:INFO] cmd: ATS89?*47C6
[ 11:47:22.264 ] [27:INFO] res: \r\n00001\r\n\r\nOK\r\n
[ 11:47:22.264 ] [27:INFO] cmd: AT%GPS=30,2,"RMC","GGA"*D90A
[ 11:47:22.264 ] [27:INFO] res: \r\n%GPS: $GPGGA,114722.000,0100.0000,N,00100.0000,E,1,05,3.0,0.00,M,,,,0000*3A\r\n$GPRMC,114722.000,A,0100.0000,N,00100.0000,E,0.00,000.00,200115,,,A*6A\r\n\r\nOK\r\n
[ 11:47:24.274 ] [27:INFO] cmd: ATS89?*47C6
[ 11:47:24.274 ] [27:INFO] res: \r\n00001\r\n\r\nOK\r\n
[ 11:47:24.274 ] [27:INFO] cmd: AT%GPS=30,2,"RMC","GGA"*D90A
[ 11:47:24.274 ] [27:INFO] res: \r\n%GPS: $GPGGA,114724.000,0100.0000,N,00100.0000,E,1,05,3.0,0.00,M,,,,0000*3C\r\n$GPRMC,114724.000,A,0100.0000,N,00100.0000,E,0.00,000.00,200115,,,A*6C\r\n\r\nOK\r\n
[ 11:47:26.294 ] [27:INFO] cmd: ATS89?*47C6
[ 11:47:26.294 ] [27:INFO] res: \r\n00001\r\n\r\nOK\r\n
[ 11:47:26.294 ] [27:INFO] cmd: AT%GPS=30,2,"RMC","GGA"*D90A
[ 11:47:26.294 ] [27:INFO] res: \r\n%GPS: $GPGGA,114726.000,0100.0000,N,00100.0000,E,1,05,3.0,0.00,M,,,,0000*3E\r\n$GPRMC,114726.000,A,0100.0000,N,00100.0000,E,0.00,000.00,200115,,,A*6E\r\n\r\nOK\r\n
[ 11:47:28.304 ] [27:INFO] cmd: ATS89?*47C6
[ 11:47:28.304 ] [27:INFO] res: \r\n00001\r\n\r\nOK\r\n
[ 11:47:28.304 ] [27:INFO] cmd: AT%GPS=30,2,"RMC","GGA"*D90A
[ 11:47:28.304 ] [27:INFO] res: \r\n%GPS: $GPGGA,114728.000,0100.0000,N,00100.0000,E,1,05,3.0,0.00,M,,,,0000*30\r\n$GPRMC,114728.000,A,0100.0000,N,00100.0000,E,0.00,000.00,200115,,,A*60\r\n\r\nOK\r\n
[ 11:47:30.314 ] [115:INFO] Event GpsBlocked state unchanged
[ 11:47:30.314 ] [27:INFO] cmd: AT%EVNT=3,1*BC22
[ 11:47:30.314 ] [27:INFO] res: \r\n%EVNT: 24,16777215,0,443447245,3,1,4,84890,0,0,0,0,0,0,0,0,0,0,0,0,0,0,0,0,0,0,257,0,0,0,0\r\n\r\nOK\r\n
[ 11:47:30.324 ] [115:INFO] Event IdpBlocked state unchanged
[ 11:47:30.324 ] [27:INFO] cmd: ATS89?*47C6
[ 11:47:30.324 ] [27:INFO] res: \r\n00001\r\n\r\nOK\r\n
[ 11:47:30.324 ] [27:INFO] cmd: AT%GPS=30,2,"RMC","GGA"*D90A
[ 11:47:30.324 ] [27:INFO] res: \r\n%GPS: $GPGGA,114730.000,0100.0000,N,00100.0000,E,1,05,3.0,0.00,M,,,,0000*39\r\n$GPRMC,114730.000,A,0100.0000,N,00100.0000,E,0.00,000.00,200115,,,A*69\r\n\r\nOK\r\n
[ 11:47:32.324 ] [27:INFO] cmd: ATS89?*47C6
[ 11:47:32.324 ] [27:INFO] res: \r\n00001\r\n\r\nOK\r\n
[ 11:47:32.324 ] [27:INFO] cmd: AT%GPS=30,2,"RMC","GGA"*D90A
[ 11:47:32.324 ] [27:INFO] res: \r\n%GPS: $GPGGA,114732.000,0100.0000,N,00100.0000,E,1,05,3.0,0.00,M,,,,0000*3B\r\n$GPRMC,114732.000,A,0100.0000,N,00100.0000,E,0.00,000.00,200115,,,A*6B\r\n\r\nOK\r\n
[ 11:47:34.344 ] [27:INFO] cmd: ATS89?*47C6
[ 11:47:34.344 ] [27:INFO] res: \r\n00001\r\n\r\nOK\r\n
[ 11:47:34.344 ] [27:INFO] cmd: AT%GPS=30,2,"RMC","GGA"*D90A
[ 11:47:34.344 ] [27:INFO] res: \r\n%GPS: $GPGGA,114734.000,0100.0000,N,00100.0000,E,1,05,3.0,0.00,M,,,,0000*3D\r\n$GPRMC,114734.000,A,0100.0000,N,00100.0000,E,0.00,000.00,200115,,,A*6D\r\n\r\nOK\r\n
[ 11:47:36.354 ] [27:INFO] cmd: ATS89?*47C6
[ 11:47:36.354 ] [27:INFO] res: \r\n00001\r\n\r\nOK\r\n
[ 11:47:36.354 ] [27:INFO] cmd: AT%GPS=30,2,"RMC","GGA"*D90A
[ 11:47:36.354 ] [27:INFO] res: \r\n%GPS: $GPGGA,114736.000,0100.0000,N,00100.0000,E,1,05,3.0,0.00,M,,,,0000*3F\r\n$GPRMC,114736.000,A,0100.0000,N,00100.0000,E,0.00,000.00,200115,,,A*6F\r\n\r\nOK\r\n
[ 11:47:38.364 ] [27:INFO] cmd: ATS89?*47C6
[ 11:47:38.364 ] [27:INFO] res: \r\n00001\r\n\r\nOK\r\n
[ 11:47:38.364 ] [27:INFO] cmd: AT%GPS=30,2,"RMC","GGA"*D90A
[ 11:47:38.364 ] [27:INFO] res: \r\n%GPS: $GPGGA,114738.000,0100.0000,N,00100.0000,E,1,05,3.0,0.00,M,,,,0000*31\r\n$GPRMC,114738.000,A,0100.0000,N,00100.0000,E,0.00,000.00,200115,,,A*61\r\n\r\nOK\r\n
[ 11:47:40.374 ] [27:INFO] cmd: ATS89?*47C6
[ 11:47:40.374 ] [27:INFO] res: \r\n00001\r\n\r\nOK\r\n
[ 11:47:40.374 ] [27:INFO] cmd: AT%GPS=30,2,"RMC","GGA"*D90A
[ 11:47:40.374 ] [27:INFO] res: \r\n%GPS: $GPGGA,114740.000,0100.0000,N,00100.0000,E,1,05,3.0,0.00,M,,,,0000*3E\r\n$GPRMC,114740.000,A,0100.0000,N,00100.0000,E,0.00,000.00,200115,,,A*6E\r\n\r\nOK\r\n
[ 11:47:42.384 ] [27:INFO] cmd: ATS89?*47C6
[ 11:47:42.384 ] [27:INFO] res: \r\n00001\r\n\r\nOK\r\n
[ 11:47:42.384 ] [27:INFO] cmd: AT%GPS=30,2,"RMC","GGA"*D90A
[ 11:47:42.384 ] [27:INFO] res: \r\n%GPS: $GPGGA,114742.000,0100.0000,N,00100.0000,E,1,05,3.0,0.00,M,,,,0000*3C\r\n$GPRMC,114742.000,A,0100.0000,N,00100.0000,E,0.00,000.00,200115,,,A*6C\r\n\r\nOK\r\n
[ 11:47:44.404 ] [27:INFO] cmd: ATS89?*47C6
[ 11:47:44.404 ] [27:INFO] res: \r\n00001\r\n\r\nOK\r\n
[ 11:47:44.404 ] [27:INFO] cmd: AT%GPS=30,2,"RMC","GGA"*D90A
