[ 13:38:57.074 ] [27:INFO] res: \r\n%GPS: $GPGGA,133857.000,0100.0000,N,00100.0000,E,1,05,3.0,0.00,M,,,,0000*32\r\n$GPRMC,133857.000,A,0100.0000,N,00100.0000,E,0.00,000.00,030215,,,A*60\r\n\r\nOK\r\n
[ 13:38:58.074 ] [27:INFO] cmd: ATS89?*47C6
[ 13:38:58.074 ] [27:INFO] res: \r\n00001\r\n\r\nOK\r\n
[ 13:38:58.074 ] [27:INFO] cmd: AT%GPS=30,2,"RMC","GGA"*D90A
[ 13:38:58.074 ] [27:INFO] res: \r\n%GPS: $GPGGA,133858.000,0100.0000,N,00100.0000,E,1,05,3.0,0.00,M,,,,0000*3D\r\n$GPRMC,133858.000,A,0100.0000,N,00100.0000,E,0.00,000.00,030215,,,A*6F\r\n\r\nOK\r\n
[ 13:38:59.094 ] [27:INFO] cmd: ATS89?*47C6
[ 13:38:59.094 ] [27:INFO] res: \r\n00001\r\n\r\nOK\r\n
[ 13:38:59.094 ] [27:INFO] cmd: AT%GPS=30,2,"RMC","GGA"*D90A
[ 13:38:59.094 ] [27:INFO] res: \r\n%GPS: $GPGGA,133859.000,0100.0000,N,00100.0000,E,1,05,3.0,0.00,M,,,,0000*3C\r\n$GPRMC,133859.000,A,0100.0000,N,00100.0000,E,0.00,000.00,030215,,,A*6E\r\n\r\nOK\r\n
[ 13:39:00.104 ] [27:INFO] cmd: ATS89?*47C6
[ 13:39:00.104 ] [27:INFO] res: \r\n00001\r\n\r\nOK\r\n
[ 13:39:00.104 ] [27:INFO] cmd: AT%GPS=30,2,"RMC","GGA"*D90A
[ 13:39:00.114 ] [27:INFO] res: \r\n%GPS: $GPGGA,133900.000,0100.0000,N,00100.0000,E,1,05,3.0,0.00,M,,,,0000*31\r\n$GPRMC,133900.000,A,0100.0000,N,00100.0000,E,0.00,000.00,030215,,,A*63\r\n\r\nOK\r\n
[ 13:39:01.124 ] [27:INFO] cmd: ATS89?*47C6
[ 13:39:01.134 ] [27:INFO] res: \r\n00001\r\n\r\nOK\r\n
[ 13:39:01.134 ] [27:INFO] cmd: AT%GPS=30,2,"RMC","GGA"*D90A
[ 13:39:01.134 ] [27:INFO] res: \r\n%GPS: $GPGGA,133901.000,0100.0000,N,00100.0000,E,1,05,3.0,0.00,M,,,,0000*30\r\n$GPRMC,133901.000,A,0100.0000,N,00100.0000,E,0.00,000.00,030215,,,A*62\r\n\r\nOK\r\n
[ 13:39:02.134 ] [27:INFO] cmd: ATS89?*47C6
[ 13:39:02.134 ] [27:INFO] res: \r\n00001\r\n\r\nOK\r\n
[ 13:39:02.134 ] [27:INFO] cmd: AT%GPS=30,2,"RMC","GGA"*D90A
[ 13:39:02.144 ] [27:INFO] res: \r\n%GPS: $GPGGA,133902.000,0100.0000,N,00100.0000,E,1,05,3.0,0.00,M,,,,0000*33\r\n$GPRMC,133902.000,A,0100.0000,N,00100.0000,E,0.00,000.00,030215,,,A*61\r\n\r\nOK\r\n
[ 13:39:03.144 ] [27:INFO] cmd: ATS89?*47C6
[ 13:39:03.144 ] [27:INFO] res: \r\n00001\r\n\r\nOK\r\n
[ 13:39:03.144 ] [27:INFO] cmd: AT%GPS=30,2,"RMC","GGA"*D90A
[ 13:39:03.144 ] [27:INFO] res: \r\n%GPS: $GPGGA,133903.000,0100.0000,N,00100.0000,E,1,05,3.0,0.00,M,,,,0000*32\r\n$GPRMC,133903.000,A,0100.0000,N,00100.0000,E,0.00,000.00,030215,,,A*60\r\n\r\nOK\r\n
[ 13:39:04.164 ] [27:INFO] cmd: ATS89?*47C6
[ 13:39:04.164 ] [27:INFO] res: \r\n00001\r\n\r\nOK\r\n
[ 13:39:04.164 ] [27:INFO] cmd: AT%GPS=30,2,"RMC","GGA"*D90A
[ 13:39:04.174 ] [27:INFO] res: \r\n%GPS: $GPGGA,133904.000,0100.0000,N,00100.0000,E,1,05,3.0,0.00,M,,,,0000*35\r\n$GPRMC,133904.000,A,0100.0000,N,00100.0000,E,0.00,000.00,030215,,,A*67\r\n\r\nOK\r\n
[ 13:39:05.174 ] [27:INFO] cmd: ATS89?*47C6
[ 13:39:05.184 ] [27:INFO] res: \r\n00001\r\n\r\nOK\r\n
[ 13:39:05.184 ] [27:INFO] cmd: AT%GPS=30,2,"RMC","GGA"*D90A
[ 13:39:05.184 ] [27:INFO] res: \r\n%GPS: $GPGGA,133905.000,0100.0000,N,00100.0000,E,1,05,3.0,0.00,M,,,,0000*34\r\n$GPRMC,133905.000,A,0100.0000,N,00100.0000,E,0.00,000.00,030215,,,A*66\r\n\r\nOK\r\n
[ 13:39:06.194 ] [27:INFO] cmd: ATS89?*47C6
[ 13:39:06.204 ] [27:INFO] res: \r\n00001\r\n\r\nOK\r\n
[ 13:39:06.204 ] [27:INFO] cmd: AT%GPS=30,2,"RMC","GGA"*D90A
[ 13:39:06.204 ] [27:INFO] res: \r\n%GPS: $GPGGA,133906.000,0100.0000,N,00100.0000,E,1,05,3.0,0.00,M,,,,0000*37\r\n$GPRMC,133906.000,A,0100.0000,N,00100.0000,E,0.00,000.00,030215,,,A*65\r\n\r\nOK\r\n
[ 13:39:07.204 ] [27:INFO] cmd: ATS89?*47C6
[ 13:39:07.204 ] [27:INFO] res: \r\n00001\r\n\r\nOK\r\n
[ 13:39:07.204 ] [27:INFO] cmd: AT%GPS=30,2,"RMC","GGA"*D90A
[ 13:39:07.204 ] [27:INFO] res: \r\n%GPS: $GPGGA,133907.000,0100.0000,N,00100.0000,E,1,05,3.0,0.00,M,,,,0000*36\r\n$GPRMC,133907.000,A,0100.0000,N,00100.0000,E,0.00,000.00,030215,,,A*64\r\n\r\nOK\r\n
[ 13:39:08.224 ] [27:INFO] cmd: ATS89?*47C6
[ 13:39:08.224 ] [27:INFO] res: \r\n00001\r\n\r\nOK\r\n
[ 13:39:08.224 ] [27:INFO] cmd: AT%GPS=30,2,"RMC","GGA"*D90A
[ 13:39:08.244 ] [27:INFO] res: \r\n%GPS: $GPGGA,133908.000,0100.0000,N,00100.0000,E,1,05,3.0,0.00,M,,,,0000*39\r\n$GPRMC,133908.000,A,0100.0000,N,00100.0000,E,0.00,000.00,030215,,,A*6B\r\n\r\nOK\r\n
[ 13:39:09.234 ] [27:INFO] cmd: ATS89?*47C6
[ 13:39:09.234 ] [27:INFO] res: \r\n00001\r\n\r\nOK\r\n
[ 13:39:09.234 ] [27:INFO] cmd: AT%GPS=30,2,"RMC","GGA"*D90A
[ 13:39:09.234 ] [27:INFO] res: \r\n%GPS: $GPGGA,133909.000,0100.0000,N,00100.0000,E,1,05,3.0,0.00,M,,,,0000*38\r\n$GPRMC,133909.000,A,0100.0000,N,00100.0000,E,0.00,000.00,030215,,,A*6A\r\n\r\nOK\r\n
[ 13:39:10.244 ] [27:INFO] cmd: ATS89?*47C6
[ 13:39:10.244 ] [27:INFO] res: \r\n00001\r\n\r\nOK\r\n
[ 13:39:10.244 ] [27:INFO] cmd: AT%GPS=30,2,"RMC","GGA"*D90A
[ 13:39:10.254 ] [27:INFO] res: \r\n%GPS: $GPGGA,133910.000,0100.0000,N,00100.0000,E,1,05,3.0,0.00,M,,,,0000*30\r\n$GPRMC,133910.000,A,0100.0000,N,00100.0000,E,0.00,000.00,030215,,,A*62\r\n\r\nOK\r\n
[ 13:39:11.254 ] [115:INFO] Event GpsBlocked state unchanged
[ 13:39:11.254 ] [27:INFO] cmd: AT%EVNT=3,1*BC22
[ 13:39:11.264 ] [27:INFO] res: \r\n%EVNT: 24,16777215,0,444663547,3,1,4,98294,0,0,0,0,0,0,0,0,0,0,0,0,0,0,0,0,0,0,257,0,0,0,0\r\n\r\nOK\r\n
[ 13:39:11.274 ] [115:INFO] Event IdpBlocked state unchanged
[ 13:39:11.274 ] [27:INFO] cmd: ATS89?*47C6
[ 13:39:11.284 ] [27:INFO] res: \r\n00001\r\n\r\nOK\r\n
[ 13:39:11.284 ] [27:INFO] cmd: AT%GPS=30,2,"RMC","GGA"*D90A
[ 13:39:11.284 ] [27:INFO] res: \r\n%GPS: $GPGGA,133911.000,0100.0000,N,00100.0000,E,1,05,3.0,0.00,M,,,,0000*31\r\n$GPRMC,133911.000,A,0100.0000,N,00100.0000,E,0.00,000.00,030215,,,A*63\r\n\r\nOK\r\n
[ 13:39:12.274 ] [27:INFO] cmd: ATS89?*47C6
[ 13:39:12.274 ] [27:INFO] res: \r\n00001\r\n\r\nOK\r\n
[ 13:39:12.284 ] [27:INFO] cmd: AT%GPS=30,2,"RMC","GGA"*D90A
[ 13:39:12.284 ] [27:INFO] res: \r\n%GPS: $GPGGA,133912.000,0100.0000,N,00100.0000,E,1,05,3.0,0.00,M,,,,0000*32\r\n$GPRMC,133912.000,A,0100.0000,N,00100.0000,E,0.00,000.00,030215,,,A*60\r\n\r\nOK\r\n
[ 13:39:13.284 ] [27:INFO] cmd: ATS89?*47C6
[ 13:39:13.284 ] [27:INFO] res: \r\n00001\r\n\r\nOK\r\n
[ 13:39:13.284 ] [27:INFO] cmd: AT%GPS=30,2,"RMC","GGA"*D90A
[ 13:39:13.284 ] [27:INFO] res: \r\n%GPS: $GPGGA,133913.000,0100.0000,N,00100.0000,E,1,05,3.0,0.00,M,,,,0000*33\r\n$GPRMC,133913.000,A,0100.0000,N,00100.0000,E,0.00,000.00,030215,,,A*61\r\n\r\nOK\r\n
[ 13:39:14.304 ] [27:INFO] cmd: ATS89?*47C6
[ 13:39:14.314 ] [27:INFO] res: \r\n00001\r\n\r\nOK\r\n
[ 13:39:14.314 ] [27:INFO] cmd: AT%GPS=30,2,"RMC","GGA"*D90A
[ 13:39:14.324 ] [27:INFO] res: \r\n%GPS: $GPGGA,133914.000,0100.0000,N,00100.0000,E,1,05,3.0,0.00,M,,,,0000*34\r\n$GPRMC,133914.000,A,0100.0000,N,00100.0000,E,0.00,000.00,030215,,,A*66\r\n\r\nOK\r\n
[ 13:39:15.334 ] [27:INFO] cmd: ATS89?*47C6
[ 13:39:15.334 ] [27:INFO] res: \r\n00001\r\n\r\nOK\r\n
[ 13:39:15.334 ] [27:INFO] cmd: AT%GPS=30,2,"RMC","GGA"*D90A
[ 13:39:15.334 ] [27:INFO] res: \r\n%GPS: $GPGGA,133915.000,0100.0000,N,00100.0000,E,1,05,3.0,0.00,M,,,,0000*35\r\n$GPRMC,133915.000,A,0100.0000,N,00100.0000,E,0.00,000.00,030215,,,A*67\r\n\r\nOK\r\n
[ 13:39:16.344 ] [27:INFO] cmd: ATS89?*47C6
[ 13:39:16.344 ] [27:INFO] res: \r\n00001\r\n\r\nOK\r\n
[ 13:39:16.344 ] [27:INFO] cmd: AT%GPS=30,2,"RMC","GGA"*D90A
[ 13:39:16.344 ] [27:INFO] res: \r\n%GPS: $GPGGA,133916.000,0100.0000,N,00100.0000,E,1,05,3.0,0.00,M,,,,0000*36\r\n$GPRMC,133916.000,A,0100.0000,N,00100.0000,E,0.00,000.00,030215,,,A*64\r\n\r\nOK\r\n
[ 13:39:17.354 ] [27:INFO] cmd: ATS89?*47C6
[ 13:39:17.354 ] [27:INFO] res: \r\n00001\r\n\r\nOK\r\n
[ 13:39:17.354 ] [27:INFO] cmd: AT%GPS=30,2,"RMC","GGA"*D90A
[ 13:39:17.354 ] [27:INFO] res: \r\n%GPS: $GPGGA,133917.000,0100.0000,N,00100.0000,E,1,05,3.0,0.00,M,,,,0000*37\r\n$GPRMC,133917.000,A,0100.0000,N,00100.0000,E,0.00,000.00,030215,,,A*65\r\n\r\nOK\r\n
[ 13:39:18.374 ] [27:INFO] cmd: ATS89?*47C6
[ 13:39:18.374 ] [27:INFO] res: \r\n00001\r\n\r\nOK\r\n
[ 13:39:18.374 ] [27:INFO] cmd: AT%GPS=30,2,"RMC","GGA"*D90A
[ 13:39:18.374 ] [27:INFO] res: \r\n%GPS: $GPGGA,133918.000,0100.0000,N,00100.0000,E,1,05,3.0,0.00,M,,,,0000*38\r\n$GPRMC,133918.000,A,0100.0000,N,00100.0000,E,0.00,000.00,030215,,,A*6A\r\n\r\nOK\r\n
[ 13:39:19.384 ] [27:INFO] cmd: ATS89?*47C6
[ 13:39:19.384 ] [27:INFO] res: \r\n00001\r\n\r\nOK\r\n
[ 13:39:19.384 ] [27:INFO] cmd: AT%GPS=30,2,"RMC","GGA"*D90A
[ 13:39:19.384 ] [27:INFO] res: \r\n%GPS: $GPGGA,133919.000,0100.0000,N,00100.0000,E,1,05,3.0,0.00,M,,,,0000*39\r\n$GPRMC,133919.000,A,0100.0000,N,00100.0000,E,0.00,000.00,030215,,,A*6B\r\n\r\nOK\r\n
[ 13:39:20.404 ] [27:INFO] cmd: ATS89?*47C6
[ 13:39:20.404 ] [27:INFO] res: \r\n00001\r\n\r\nOK\r\n
[ 13:39:20.404 ] [27:INFO] cmd: AT%GPS=30,2,"RMC","GGA"*D90A
[ 13:39:20.404 ] [27:INFO] res: \r\n%GPS: $GPGGA,133920.000,0100.0000,N,00100.0000,E,1,05,3.0,0.00,M,,,,0000*33\r\n$GPRMC,133920.000,A,0100.0000,N,00100.0000,E,0.00,000.00,030215,,,A*61\r\n\r\nOK\r\n
[ 13:39:21.414 ] [27:INFO] cmd: ATS89?*47C6
[ 13:39:21.414 ] [27:INFO] res: \r\n00001\r\n\r\nOK\r\n
[ 13:39:21.414 ] [27:INFO] cmd: AT%GPS=30,2,"RMC","GGA"*D90A
[ 13:39:21.414 ] [27:INFO] res: \r\n%GPS: $GPGGA,133921.000,0100.0000,N,00100.0000,E,1,05,3.0,0.00,M,,,,0000*32\r\n$GPRMC,133921.000,A,0100.0000,N,00100.0000,E,0.00,000.00,030215,,,A*60\r\n\r\nOK\r\n
[ 13:39:22.424 ] [27:INFO] cmd: ATS89?*47C6
[ 13:39:22.424 ] [27:INFO] res: \r\n00001\r\n\r\nOK\r\n
[ 13:39:22.424 ] [27:INFO] cmd: AT%GPS=30,2,"RMC","GGA"*D90A
[ 13:39:22.424 ] [27:INFO] res: \r\n%GPS: $GPGGA,133922.000,0100.0000,N,00100.0000,E,1,05,3.0,0.00,M,,,,0000*31\r\n$GPRMC,133922.000,A,0100.0000,N,00100.0000,E,0.00,000.00,030215,,,A*63\r\n\r\nOK\r\n
[ 13:39:22.724 ] [26:INFO] CLI Cmd: [prop get VMS]
[ 13:39:23.444 ] [27:INFO] cmd: ATS89?*47C6
[ 13:39:23.444 ] [27:INFO] res: \r\n00001\r\n\r\nOK\r\n
[ 13:39:23.444 ] [27:INFO] cmd: AT%GPS=30,2,"RMC","GGA"*D90A
[ 13:39:23.444 ] [27:INFO] res: \r\n%GPS: $GPGGA,133923.000,0100.0000,N,00100.0000,E,1,05,3.0,0.00,M,,,,0000*30\r\n$GPRMC,133923.000,A,0100.0000,N,00100.0000,E,0.00,000.00,030215,,,A*62\r\n\r\nOK\r\n
[ 13:39:24.454 ] [27:INFO] cmd: ATS89?*47C6
[ 13:39:24.454 ] [27:INFO] res: \r\n00001\r\n\r\nOK\r\n
[ 13:39:24.454 ] [27:INFO] cmd: AT%GPS=30,2,"RMC","GGA"*D90A
[ 13:39:24.454 ] [27:INFO] res: \r\n%GPS: $GPGGA,133924.000,0100.0000,N,00100.0000,E,1,05,3.0,0.00,M,,,,0000*37\r\n$GPRMC,133924.000,A,0100.0000,N,00100.0000,E,0.00,000.00,030215,,,A*65\r\n\r\nOK\r\n
[ 13:39:25.474 ] [27:INFO] cmd: ATS89?*47C6
[ 13:39:25.474 ] [27:INFO] res: \r\n00001\r\n\r\nOK\r\n
[ 13:39:25.474 ] [27:INFO] cmd: AT%GPS=30,2,"RMC","GGA"*D90A
[ 13:39:25.474 ] [27:INFO] res: \r\n%GPS: $GPGGA,133925.000,0100.0000,N,00100.0000,E,1,05,3.0,0.00,M,,,,0000*36\r\n$GPRMC,133925.000,A,0100.0000,N,00100.0000,E,0.00,000.00,030215,,,A*64\r\n\r\nOK\r\n
[ 13:39:26.484 ] [27:INFO] cmd: ATS89?*47C6
[ 13:39:26.484 ] [27:INFO] res: \r\n00001\r\n\r\nOK\r\n
[ 13:39:26.484 ] [27:INFO] cmd: AT%GPS=30,2,"RMC","GGA"*D90A
[ 13:39:26.484 ] [27:INFO] res: \r\n%GPS: $GPGGA,133926.000,0100.0000,N,00100.0000,E,1,05,3.0,0.00,M,,,,0000*35\r\n$GPRMC,133926.000,A,0100.0000,N,00100.0000,E,0.00,000.00,030215,,,A*67\r\n\r\nOK\r\n
[ 13:39:27.494 ] [27:INFO] cmd: ATS89?*47C6
[ 13:39:27.494 ] [27:INFO] res: \r\n00001\r\n\r\nOK\r\n
[ 13:39:27.494 ] [27:INFO] cmd: AT%GPS=30,2,"RMC","GGA"*D90A
[ 13:39:27.494 ] [27:INFO] res: \r\n%GPS: $GPGGA,133927.000,0100.0000,N,00100.0000,E,1,05,3.0,0.00,M,,,,0000*34\r\n$GPRMC,133927.000,A,0100.0000,N,00100.0000,E,0.00,000.00,030215,,,A*66\r\n\r\nOK\r\n
[ 13:39:28.514 ] [27:INFO] cmd: ATS89?*47C6
[ 13:39:28.514 ] [27:INFO] res: \r\n00001\r\n\r\nOK\r\n
[ 13:39:28.514 ] [27:INFO] cmd: AT%GPS=30,2,"RMC","GGA"*D90A
[ 13:39:28.524 ] [27:INFO] res: \r\n%GPS: $GPGGA,133928.000,0100.0000,N,00100.0000,E,1,05,3.0,0.00,M,,,,0000*3B\r\n$GPRMC,133928.000,A,0100.0000,N,00100.0000,E,0.00,000.00,030215,,,A*69\r\n\r\nOK\r\n
[ 13:39:29.524 ] [27:INFO] cmd: ATS89?*47C6
[ 13:39:29.524 ] [27:INFO] res: \r\n00001\r\n\r\nOK\r\n
[ 13:39:29.524 ] [27:INFO] cmd: AT%GPS=30,2,"RMC","GGA"*D90A
[ 13:39:29.524 ] [27:INFO] res: \r\n%GPS: $GPGGA,133929.000,0100.0000,N,00100.0000,E,1,05,3.0,0.00,M,,,,0000*3A\r\n$GPRMC,133929.000,A,0100.0000,N,00100.0000,E,0.00,000.00,030215,,,A*68\r\n\r\nOK\r\n
[ 13:39:30.544 ] [27:INFO] cmd: ATS89?*47C6
[ 13:39:30.544 ] [27:INFO] res: \r\n00001\r\n\r\nOK\r\n
[ 13:39:30.544 ] [27:INFO] cmd: AT%GPS=30,2,"RMC","GGA"*D90A
[ 13:39:30.544 ] [27:INFO] res: \r\n%GPS: $GPGGA,133930.000,0100.0000,N,00100.0000,E,1,05,3.0,0.00,M,,,,0000*32\r\n$GPRMC,133930.000,A,0100.0000,N,00100.0000,E,0.00,000.00,030215,,,A*60\r\n\r\nOK\r\n
[ 13:39:31.554 ] [27:INFO] cmd: ATS89?*47C6
[ 13:39:31.554 ] [27:INFO] res: \r\n00001\r\n\r\nOK\r\n
[ 13:39:31.554 ] [27:INFO] cmd: AT%GPS=30,2,"RMC","GGA"*D90A
[ 13:39:31.554 ] [27:INFO] res: \r\n%GPS: $GPGGA,133931.000,0100.0000,N,00100.0000,E,1,05,3.0,0.00,M,,,,0000*33\r\n$GPRMC,133931.000,A,0100.0000,N,00100.0000,E,0.00,000.00,030215,,,A*61\r\n\r\nOK\r\n
[ 13:39:32.564 ] [27:INFO] cmd: ATS89?*47C6
[ 13:39:32.564 ] [27:INFO] res: \r\n00001\r\n\r\nOK\r\n
[ 13:39:32.564 ] [27:INFO] cmd: AT%GPS=30,2,"RMC","GGA"*D90A
[ 13:39:32.564 ] [27:INFO] res: \r\n%GPS: $GPGGA,133932.000,0100.0000,N,00100.0000,E,1,05,3.0,0.00,M,,,,0000*30\r\n$GPRMC,133932.000,A,0100.0000,N,00100.0000,E,0.00,000.00,030215,,,A*62\r\n\r\nOK\r\n
[ 13:39:33.584 ] [27:INFO] cmd: ATS89?*47C6
[ 13:39:33.584 ] [27:INFO] res: \r\n00001\r\n\r\nOK\r\n
[ 13:39:33.584 ] [27:INFO] cmd: AT%GPS=30,2,"RMC","GGA"*D90A
[ 13:39:33.584 ] [27:INFO] res: \r\n%GPS: $GPGGA,133933.000,0100.0000,N,00100.0000,E,1,05,3.0,0.00,M,,,,0000*31\r\n$GPRMC,133933.000,A,0100.0000,N,00100.0000,E,0.00,000.00,030215,,,A*63\r\n\r\nOK\r\n
[ 13:39:34.594 ] [27:INFO] cmd: ATS89?*47C6
[ 13:39:34.594 ] [27:INFO] res: \r\n00001\r\n\r\nOK\r\n
[ 13:39:34.594 ] [27:INFO] cmd: AT%GPS=30,2,"RMC","GGA"*D90A
[ 13:39:34.594 ] [27:INFO] res: \r\n%GPS: $GPGGA,133934.000,0100.0000,N,00100.0000,E,1,05,3.0,0.00,M,,,,0000*36\r\n$GPRMC,133934.000,A,0100.0000,N,00100.0000,E,0.00,000.00,030215,,,A*64\r\n\r\nOK\r\n
[ 13:39:35.614 ] [27:INFO] cmd: ATS89?*47C6
[ 13:39:35.614 ] [27:INFO] res: \r\n00001\r\n\r\nOK\r\n
[ 13:39:35.614 ] [27:INFO] cmd: AT%GPS=30,2,"RMC","GGA"*D90A
[ 13:39:35.624 ] [27:INFO] res: \r\n%GPS: $GPGGA,133935.000,0100.0000,N,00100.0000,E,1,05,3.0,0.00,M,,,,0000*37\r\n$GPRMC,133935.000,A,0100.0000,N,00100.0000,E,0.00,000.00,030215,,,A*65\r\n\r\nOK\r\n
[ 13:39:36.624 ] [27:INFO] cmd: ATS89?*47C6
[ 13:39:36.624 ] [27:INFO] res: \r\n00001\r\n\r\nOK\r\n
[ 13:39:36.624 ] [27:INFO] cmd: AT%GPS=30,2,"RMC","GGA"*D90A
[ 13:39:36.624 ] [27:INFO] res: \r\n%GPS: $GPGGA,133936.000,0100.0000,N,00100.0000,E,1,05,3.0,0.00,M,,,,0000*34\r\n$GPRMC,133936.000,A,0100.0000,N,00100.0000,E,0.00,000.00,030215,,,A*66\r\n\r\nOK\r\n
[ 13:39:37.634 ] [27:INFO] cmd: ATS89?*47C6
[ 13:39:37.634 ] [27:INFO] res: \r\n00001\r\n\r\nOK\r\n
[ 13:39:37.634 ] [27:INFO] cmd: AT%GPS=30,2,"RMC","GGA"*D90A
[ 13:39:37.634 ] [27:INFO] res: \r\n%GPS: $GPGGA,133937.000,0100.0000,N,00100.0000,E,1,05,3.0,0.00,M,,,,0000*35\r\n$GPRMC,133937.000,A,0100.0000,N,00100.0000,E,0.00,000.00,030215,,,A*67\r\n\r\nOK\r\n
[ 13:39:38.654 ] [27:INFO] cmd: ATS89?*47C6
[ 13:39:38.654 ] [27:INFO] res: \r\n00001\r\n\r\nOK\r\n
[ 13:39:38.654 ] [27:INFO] cmd: AT%GPS=30,2,"RMC","GGA"*D90A
[ 13:39:38.654 ] [27:INFO] res: \r\n%GPS: $GPGGA,133938.000,0100.0000,N,00100.0000,E,1,05,3.0,0.00,M,,,,0000*3A\r\n$GPRMC,133938.000,A,0100.0000,N,00100.0000,E,0.00,000.00,030215,,,A*68\r\n\r\nOK\r\n
[ 13:39:39.664 ] [27:INFO] cmd: ATS89?*47C6
[ 13:39:39.664 ] [27:INFO] res: \r\n00001\r\n\r\nOK\r\n
[ 13:39:39.664 ] [27:INFO] cmd: AT%GPS=30,2,"RMC","GGA"*D90A
[ 13:39:39.664 ] [27:INFO] res: \r\n%GPS: $GPGGA,133939.000,0100.0000,N,00100.0000,E,1,05,3.0,0.00,M,,,,0000*3B\r\n$GPRMC,133939.000,A,0100.0000,N,00100.0000,E,0.00,000.00,030215,,,A*69\r\n\r\nOK\r\n
[ 13:39:40.684 ] [27:INFO] cmd: ATS89?*47C6
[ 13:39:40.684 ] [27:INFO] res: \r\n00001\r\n\r\nOK\r\n
[ 13:39:40.684 ] [27:INFO] cmd: AT%GPS=30,2,"RMC","GGA"*D90A
[ 13:39:40.684 ] [27:INFO] res: \r\n%GPS: $GPGGA,133940.000,0100.0000,N,00100.0000,E,1,05,3.0,0.00,M,,,,0000*35\r\n$GPRMC,133940.000,A,0100.0000,N,00100.0000,E,0.00,000.00,030215,,,A*67\r\n\r\nOK\r\n
[ 13:39:41.694 ] [27:INFO] cmd: ATS89?*47C6
[ 13:39:41.694 ] [27:INFO] res: \r\n00001\r\n\r\nOK\r\n
[ 13:39:41.694 ] [27:INFO] cmd: AT%GPS=30,2,"RMC","GGA"*D90A
[ 13:39:41.694 ] [27:INFO] res: \r\n%GPS: $GPGGA,133941.000,0100.0000,N,00100.0000,E,1,05,3.0,0.00,M,,,,0000*34\r\n$GPRMC,133941.000,A,0100.0000,N,00100.0000,E,0.00,000.00,030215,,,A*66\r\n\r\nOK\r\n
[ 13:39:42.704 ] [27:INFO] cmd: ATS89?*47C6
[ 13:39:42.704 ] [27:INFO] res: \r\n00001\r\n\r\nOK\r\n
[ 13:39:42.704 ] [27:INFO] cmd: AT%GPS=30,2,"RMC","GGA"*D90A
[ 13:39:42.704 ] [27:INFO] res: \r\n%GPS: $GPGGA,133942.000,0100.0000,N,00100.0000,E,1,05,3.0,0.00,M,,,,0000*37\r\n$GPRMC,133942.000,A,0100.0000,N,00100.0000,E,0.00,000.00,030215,,,A*65\r\n\r\nOK\r\n
[ 13:39:43.724 ] [27:INFO] cmd: ATS89?*47C6
[ 13:39:43.734 ] [27:INFO] res: \r\n00001\r\n\r\nOK\r\n
[ 13:39:43.734 ] [27:INFO] cmd: AT%GPS=30,2,"RMC","GGA"*D90A
[ 13:39:43.734 ] [27:INFO] res: \r\n%GPS: $GPGGA,133943.000,0100.0000,N,00100.0000,E,1,05,3.0,0.00,M,,,,0000*36\r\n$GPRMC,133943.000,A,0100.0000,N,00100.0000,E,0.00,000.00,030215,,,A*64\r\n\r\nOK\r\n
[ 13:39:44.734 ] [27:INFO] cmd: ATS89?*47C6
[ 13:39:44.734 ] [27:INFO] res: \r\n00001\r\n\r\nOK\r\n
[ 13:39:44.734 ] [27:INFO] cmd: AT%GPS=30,2,"RMC","GGA"*D90A
[ 13:39:44.734 ] [27:INFO] res: \r\n%GPS: $GPGGA,133944.000,0100.0000,N,00100.0000,E,1,05,3.0,0.00,M,,,,0000*31\r\n$GPRMC,133944.000,A,0100.0000,N,00100.0000,E,0.00,000.00,030215,,,A*63\r\n\r\nOK\r\n
[ 13:39:45.754 ] [27:INFO] cmd: ATS89?*47C6
[ 13:39:45.754 ] [27:INFO] res: \r\n00001\r\n\r\nOK\r\n
[ 13:39:45.754 ] [27:INFO] cmd: AT%GPS=30,2,"RMC","GGA"*D90A
[ 13:39:45.754 ] [27:INFO] res: \r\n%GPS: $GPGGA,133945.000,0100.0000,N,00100.0000,E,1,05,3.0,0.00,M,,,,0000*30\r\n$GPRMC,133945.000,A,0100.0000,N,00100.0000,E,0.00,000.00,030215,,,A*62\r\n\r\nOK\r\n
[ 13:39:46.764 ] [27:INFO] cmd: ATS89?*47C6
[ 13:39:46.764 ] [27:INFO] res: \r\n00001\r\n\r\nOK\r\n
[ 13:39:46.764 ] [27:INFO] cmd: AT%GPS=30,2,"RMC","GGA"*D90A
[ 13:39:46.764 ] [27:INFO] res: \r\n%GPS: $GPGGA,133946.000,0100.0000,N,00100.0000,E,1,05,3.0,0.00,M,,,,0000*33\r\n$GPRMC,133946.000,A,0100.0000,N,00100.0000,E,0.00,000.00,030215,,,A*61\r\n\r\nOK\r\n
[ 13:39:47.784 ] [27:INFO] cmd: ATS89?*47C6
[ 13:39:47.784 ] [27:INFO] res: \r\n00001\r\n\r\nOK\r\n
[ 13:39:47.784 ] [27:INFO] cmd: AT%GPS=30,2,"RMC","GGA"*D90A
[ 13:39:47.784 ] [27:INFO] res: \r\n%GPS: $GPGGA,133947.000,0100.0000,N,00100.0000,E,1,05,3.0,0.00,M,,,,0000*32\r\n$GPRMC,133947.000,A,0100.0000,N,00100.0000,E,0.00,000.00,030215,,,A*60\r\n\r\nOK\r\n
[ 13:39:48.794 ] [27:INFO] cmd: ATS89?*47C6
[ 13:39:48.794 ] [27:INFO] res: \r\n00001\r\n\r\nOK\r\n
[ 13:39:48.794 ] [27:INFO] cmd: AT%GPS=30,2,"RMC","GGA"*D90A
[ 13:39:48.804 ] [27:INFO] res: \r\n%GPS: $GPGGA,133948.000,0100.0000,N,00100.0000,E,1,05,3.0,0.00,M,,,,0000*3D\r\n$GPRMC,133948.000,A,0100.0000,N,00100.0000,E,0.00,000.00,030215,,,A*6F\r\n\r\nOK\r\n
[ 13:39:49.804 ] [27:INFO] cmd: ATS89?*47C6
[ 13:39:49.804 ] [27:INFO] res: \r\n00001\r\n\r\nOK\r\n
[ 13:39:49.804 ] [27:INFO] cmd: AT%GPS=30,2,"RMC","GGA"*D90A
[ 13:39:49.814 ] [27:INFO] res: \r\n%GPS: $GPGGA,133949.000,0100.0000,N,00100.0000,E,1,05,3.0,0.00,M,,,,0000*3C\r\n$GPRMC,133949.000,A,0100.0000,N,00100.0000,E,0.00,000.00,030215,,,A*6E\r\n\r\nOK\r\n
[ 13:39:50.824 ] [27:INFO] cmd: ATS89?*47C6
[ 13:39:50.824 ] [27:INFO] res: \r\n00001\r\n\r\nOK\r\n
[ 13:39:50.824 ] [27:INFO] cmd: AT%GPS=30,2,"RMC","GGA"*D90A
[ 13:39:50.834 ] [27:INFO] res: \r\n%GPS: $GPGGA,133950.000,0100.0000,N,00100.0000,E,1,05,3.0,0.00,M,,,,0000*34\r\n$GPRMC,133950.000,A,0100.0000,N,00100.0000,E,0.00,000.00,030215,,,A*66\r\n\r\nOK\r\n
[ 13:39:51.834 ] [27:INFO] cmd: ATS89?*47C6
[ 13:39:51.834 ] [27:INFO] res: \r\n00001\r\n\r\nOK\r\n
[ 13:39:51.834 ] [27:INFO] cmd: AT%GPS=30,2,"RMC","GGA"*D90A
[ 13:39:51.834 ] [27:INFO] res: \r\n%GPS: $GPGGA,133951.000,0100.0000,N,00100.0000,E,1,05,3.0,0.00,M,,,,0000*35\r\n$GPRMC,133951.000,A,0100.0000,N,00100.0000,E,0.00,000.00,030215,,,A*67\r\n\r\nOK\r\n
[ 13:39:52.854 ] [27:INFO] cmd: ATS89?*47C6
[ 13:39:52.854 ] [27:INFO] res: \r\n00001\r\n\r\nOK\r\n
[ 13:39:52.854 ] [27:INFO] cmd: AT%GPS=30,2,"RMC","GGA"*D90A
[ 13:39:52.854 ] [27:INFO] res: \r\n%GPS: $GPGGA,133952.000,0100.0000,N,00100.0000,E,1,05,3.0,0.00,M,,,,0000*36\r\n$GPRMC,133952.000,A,0100.0000,N,00100.0000,E,0.00,000.00,030215,,,A*64\r\n\r\nOK\r\n
[ 13:39:53.864 ] [27:INFO] cmd: ATS89?*47C6
[ 13:39:53.864 ] [27:INFO] res: \r\n00001\r\n\r\nOK\r\n
[ 13:39:53.864 ] [27:INFO] cmd: AT%GPS=30,2,"RMC","GGA"*D90A
[ 13:39:53.864 ] [27:INFO] res: \r\n%GPS: $GPGGA,133953.000,0100.0000,N,00100.0000,E,1,05,3.0,0.00,M,,,,0000*37\r\n$GPRMC,133953.000,A,0100.0000,N,00100.0000,E,0.00,000.00,030215,,,A*65\r\n\r\nOK\r\n
[ 13:39:54.874 ] [27:INFO] cmd: ATS89?*47C6
[ 13:39:54.874 ] [27:INFO] res: \r\n00001\r\n\r\nOK\r\n
[ 13:39:54.874 ] [27:INFO] cmd: AT%GPS=30,2,"RMC","GGA"*D90A
[ 13:39:54.874 ] [27:INFO] res: \r\n%GPS: $GPGGA,133954.000,0100.0000,N,00100.0000,E,1,05,3.0,0.00,M,,,,0000*30\r\n$GPRMC,133954.000,A,0100.0000,N,00100.0000,E,0.00,000.00,030215,,,A*62\r\n\r\nOK\r\n
[ 13:39:55.894 ] [27:INFO] cmd: ATS89?*47C6
[ 13:39:55.894 ] [27:INFO] res: \r\n00001\r\n\r\nOK\r\n
[ 13:39:55.894 ] [27:INFO] cmd: AT%GPS=30,2,"RMC","GGA"*D90A
[ 13:39:55.894 ] [27:INFO] res: \r\n%GPS: $GPGGA,133955.000,0100.0000,N,00100.0000,E,1,05,3.0,0.00,M,,,,0000*31\r\n$GPRMC,133955.000,A,0100.0000,N,00100.0000,E,0.00,000.00,030215,,,A*63\r\n\r\nOK\r\n
[ 13:39:56.904 ] [27:INFO] cmd: ATS89?*47C6
[ 13:39:56.904 ] [27:INFO] res: \r\n00001\r\n\r\nOK\r\n
[ 13:39:56.904 ] [27:INFO] cmd: AT%GPS=30,2,"RMC","GGA"*D90A
[ 13:39:56.904 ] [27:INFO] res: \r\n%GPS: $GPGGA,133956.000,0100.0000,N,00100.0000,E,1,05,3.0,0.00,M,,,,0000*32\r\n$GPRMC,133956.000,A,0100.0000,N,00100.0000,E,0.00,000.00,030215,,,A*60\r\n\r\nOK\r\n
[ 13:39:57.924 ] [27:INFO] cmd: ATS89?*47C6
[ 13:39:57.924 ] [27:INFO] res: \r\n00001\r\n\r\nOK\r\n
[ 13:39:57.924 ] [27:INFO] cmd: AT%GPS=30,2,"RMC","GGA"*D90A
[ 13:39:57.944 ] [27:INFO] res: \r\n%GPS: $GPGGA,133957.000,0100.0000,N,00100.0000,E,1,05,3.0,0.00,M,,,,0000*33\r\n$GPRMC,133957.000,A,0100.0000,N,00100.0000,E,0.00,000.00,030215,,,A*61\r\n\r\nOK\r\n
[ 13:39:58.934 ] [27:INFO] cmd: ATS89?*47C6
[ 13:39:58.934 ] [27:INFO] res: \r\n00001\r\n\r\nOK\r\n
[ 13:39:58.934 ] [27:INFO] cmd: AT%GPS=30,2,"RMC","GGA"*D90A
[ 13:39:58.934 ] [27:INFO] res: \r\n%GPS: $GPGGA,133958.000,0100.0000,N,00100.0000,E,1,05,3.0,0.00,M,,,,0000*3C\r\n$GPRMC,133958.000,A,0100.0000,N,00100.0000,E,0.00,000.00,030215,,,A*6E\r\n\r\nOK\r\n
[ 13:39:59.944 ] [27:INFO] cmd: ATS89?*47C6
[ 13:39:59.944 ] [27:INFO] res: \r\n00001\r\n\r\nOK\r\n
[ 13:39:59.944 ] [27:INFO] cmd: AT%GPS=30,2,"RMC","GGA"*D90A
[ 13:39:59.944 ] [27:INFO] res: \r\n%GPS: $GPGGA,133959.000,0100.0000,N,00100.0000,E,1,05,3.0,0.00,M,,,,0000*3D\r\n$GPRMC,133959.000,A,0100.0000,N,00100.0000,E,0.00,000.00,030215,,,A*6F\r\n\r\nOK\r\n
[ 13:40:00.964 ] [27:INFO] cmd: ATS89?*47C6
[ 13:40:00.964 ] [27:INFO] res: \r\n00001\r\n\r\nOK\r\n
[ 13:40:00.964 ] [27:INFO] cmd: AT%GPS=30,2,"RMC","GGA"*D90A
[ 13:40:00.964 ] [27:INFO] res: \r\n%GPS: $GPGGA,134000.000,0100.0000,N,00100.0000,E,1,05,3.0,0.00,M,,,,0000*3F\r\n$GPRMC,134000.000,A,0100.0000,N,00100.0000,E,0.00,000.00,030215,,,A*6D\r\n\r\nOK\r\n
[ 13:40:01.974 ] [27:INFO] cmd: ATS89?*47C6
[ 13:40:01.974 ] [27:INFO] res: \r\n00001\r\n\r\nOK\r\n
[ 13:40:01.974 ] [27:INFO] cmd: AT%GPS=30,2,"RMC","GGA"*D90A
[ 13:40:01.974 ] [27:INFO] res: \r\n%GPS: $GPGGA,134001.000,0100.0000,N,00100.0000,E,1,05,3.0,0.00,M,,,,0000*3E\r\n$GPRMC,134001.000,A,0100.0000,N,00100.0000,E,0.00,000.00,030215,,,A*6C\r\n\r\nOK\r\n
[ 13:40:02.994 ] [27:INFO] cmd: ATS89?*47C6
[ 13:40:02.994 ] [27:INFO] res: \r\n00001\r\n\r\nOK\r\n
[ 13:40:02.994 ] [27:INFO] cmd: AT%GPS=30,2,"RMC","GGA"*D90A
[ 13:40:02.994 ] [27:INFO] res: \r\n%GPS: $GPGGA,134002.000,0100.0000,N,00100.0000,E,1,05,3.0,0.00,M,,,,0000*3D\r\n$GPRMC,134002.000,A,0100.0000,N,00100.0000,E,0.00,000.00,030215,,,A*6F\r\n\r\nOK\r\n
[ 13:40:04.004 ] [27:INFO] cmd: ATS89?*47C6
[ 13:40:04.004 ] [27:INFO] res: \r\n00001\r\n\r\nOK\r\n
[ 13:40:04.004 ] [27:INFO] cmd: AT%GPS=30,2,"RMC","GGA"*D90A
[ 13:40:04.014 ] [27:INFO] res: \r\n%GPS: $GPGGA,134004.000,0100.0000,N,00100.0000,E,1,05,3.0,0.00,M,,,,0000*3B\r\n$GPRMC,134004.000,A,0100.0000,N,00100.0000,E,0.00,000.00,030215,,,A*69\r\n\r\nOK\r\n
[ 13:40:05.014 ] [27:INFO] cmd: ATS89?*47C6
[ 13:40:05.014 ] [27:INFO] res: \r\n00001\r\n\r\nOK\r\n
[ 13:40:05.014 ] [27:INFO] cmd: AT%GPS=30,2,"RMC","GGA"*D90A
[ 13:40:05.014 ] [27:INFO] res: \r\n%GPS: $GPGGA,134005.000,0100.0000,N,00100.0000,E,1,05,3.0,0.00,M,,,,0000*3A\r\n$GPRMC,134005.000,A,0100.0000,N,00100.0000,E,0.00,000.00,030215,,,A*68\r\n\r\nOK\r\n
[ 13:40:06.034 ] [27:INFO] cmd: ATS89?*47C6
[ 13:40:06.034 ] [27:INFO] res: \r\n00001\r\n\r\nOK\r\n
[ 13:40:06.034 ] [27:INFO] cmd: AT%GPS=30,2,"RMC","GGA"*D90A
[ 13:40:06.034 ] [27:INFO] res: \r\n%GPS: $GPGGA,134006.000,0100.0000,N,00100.0000,E,1,05,3.0,0.00,M,,,,0000*39\r\n$GPRMC,134006.000,A,0100.0000,N,00100.0000,E,0.00,000.00,030215,,,A*6B\r\n\r\nOK\r\n
[ 13:40:07.044 ] [27:INFO] cmd: ATS89?*47C6
[ 13:40:07.044 ] [27:INFO] res: \r\n00001\r\n\r\nOK\r\n
[ 13:40:07.044 ] [27:INFO] cmd: AT%GPS=30,2,"RMC","GGA"*D90A
[ 13:40:07.044 ] [27:INFO] res: \r\n%GPS: $GPGGA,134007.000,0100.0000,N,00100.0000,E,1,05,3.0,0.00,M,,,,0000*38\r\n$GPRMC,134007.000,A,0100.0000,N,00100.0000,E,0.00,000.00,030215,,,A*6A\r\n\r\nOK\r\n
[ 13:40:08.064 ] [27:INFO] cmd: ATS89?*47C6
[ 13:40:08.064 ] [27:INFO] res: \r\n00001\r\n\r\nOK\r\n
[ 13:40:08.064 ] [27:INFO] cmd: AT%GPS=30,2,"RMC","GGA"*D90A
[ 13:40:08.064 ] [27:INFO] res: \r\n%GPS: $GPGGA,134008.000,0100.0000,N,00100.0000,E,1,05,3.0,0.00,M,,,,0000*37\r\n$GPRMC,134008.000,A,0100.0000,N,00100.0000,E,0.00,000.00,030215,,,A*65\r\n\r\nOK\r\n
[ 13:40:09.074 ] [27:INFO] cmd: ATS89?*47C6
[ 13:40:09.074 ] [27:INFO] res: \r\n00001\r\n\r\nOK\r\n
[ 13:40:09.074 ] [27:INFO] cmd: AT%GPS=30,2,"RMC","GGA"*D90A
[ 13:40:09.074 ] [27:INFO] res: \r\n%GPS: $GPGGA,134009.000,0100.0000,N,00100.0000,E,1,05,3.0,0.00,M,,,,0000*36\r\n$GPRMC,134009.000,A,0100.0000,N,00100.0000,E,0.00,000.00,030215,,,A*64\r\n\r\nOK\r\n
[ 13:40:10.084 ] [27:INFO] cmd: ATS89?*47C6
[ 13:40:10.084 ] [27:INFO] res: \r\n00001\r\n\r\nOK\r\n
[ 13:40:10.084 ] [27:INFO] cmd: AT%GPS=30,2,"RMC","GGA"*D90A
[ 13:40:10.084 ] [27:INFO] res: \r\n%GPS: $GPGGA,134010.000,0100.0000,N,00100.0000,E,1,05,3.0,0.00,M,,,,0000*3E\r\n$GPRMC,134010.000,A,0100.0000,N,00100.0000,E,0.00,000.00,030215,,,A*6C\r\n\r\nOK\r\n
[ 13:40:11.104 ] [27:INFO] cmd: ATS89?*47C6
[ 13:40:11.104 ] [27:INFO] res: \r\n00001\r\n\r\nOK\r\n
[ 13:40:11.104 ] [27:INFO] cmd: AT%GPS=30,2,"RMC","GGA"*D90A
[ 13:40:11.104 ] [27:INFO] res: \r\n%GPS: $GPGGA,134011.000,0100.0000,N,00100.0000,E,1,05,3.0,0.00,M,,,,0000*3F\r\n$GPRMC,134011.000,A,0100.0000,N,00100.0000,E,0.00,000.00,030215,,,A*6D\r\n\r\nOK\r\n
[ 13:40:11.204 ] [115:INFO] Event GpsBlocked state unchanged
[ 13:40:11.204 ] [27:INFO] cmd: AT%EVNT=3,1*BC22
[ 13:40:11.204 ] [27:INFO] res: \r\n%EVNT: 24,16777215,0,444663607,3,1,4,98414,0,0,0,0,0,0,0,0,0,0,0,0,0,0,0,0,0,0,257,0,0,0,0\r\n\r\nOK\r\n
[ 13:40:11.204 ] [115:INFO] Event IdpBlocked state unchanged
[ 13:40:12.114 ] [27:INFO] cmd: ATS89?*47C6
[ 13:40:12.114 ] [27:INFO] res: \r\n00001\r\n\r\nOK\r\n
[ 13:40:12.114 ] [27:INFO] cmd: AT%GPS=30,2,"RMC","GGA"*D90A
[ 13:40:12.114 ] [27:INFO] res: \r\n%GPS: $GPGGA,134012.000,0100.0000,N,00100.0000,E,1,05,3.0,0.00,M,,,,0000*3C\r\n$GPRMC,134012.000,A,0100.0000,N,00100.0000,E,0.00,000.00,030215,,,A*6E\r\n\r\nOK\r\n
[ 13:40:13.134 ] [27:INFO] cmd: ATS89?*47C6
[ 13:40:13.134 ] [27:INFO] res: \r\n00001\r\n\r\nOK\r\n
[ 13:40:13.134 ] [27:INFO] cmd: AT%GPS=30,2,"RMC","GGA"*D90A
[ 13:40:13.154 ] [27:INFO] res: \r\n%GPS: $GPGGA,134013.000,0100.0000,N,00100.0000,E,1,05,3.0,0.00,M,,,,0000*3D\r\n$GPRMC,134013.000,A,0100.0000,N,00100.0000,E,0.00,000.00,030215,,,A*6F\r\n\r\nOK\r\n
[ 13:40:14.144 ] [27:INFO] cmd: ATS89?*47C6
[ 13:40:14.144 ] [27:INFO] res: \r\n00001\r\n\r\nOK\r\n
[ 13:40:14.144 ] [27:INFO] cmd: AT%GPS=30,2,"RMC","GGA"*D90A
[ 13:40:14.144 ] [27:INFO] res: \r\n%GPS: $GPGGA,134014.000,0100.0000,N,00100.0000,E,1,05,3.0,0.00,M,,,,0000*3A\r\n$GPRMC,134014.000,A,0100.0000,N,00100.0000,E,0.00,000.00,030215,,,A*68\r\n\r\nOK\r\n
[ 13:40:15.154 ] [27:INFO] cmd: ATS89?*47C6
[ 13:40:15.154 ] [27:INFO] res: \r\n00001\r\n\r\nOK\r\n
[ 13:40:15.154 ] [27:INFO] cmd: AT%GPS=30,2,"RMC","GGA"*D90A
[ 13:40:15.154 ] [27:INFO] res: \r\n%GPS: $GPGGA,134015.000,0100.0000,N,00100.0000,E,1,05,3.0,0.00,M,,,,0000*3B\r\n$GPRMC,134015.000,A,0100.0000,N,00100.0000,E,0.00,000.00,030215,,,A*69\r\n\r\nOK\r\n
[ 13:40:16.174 ] [27:INFO] cmd: ATS89?*47C6
[ 13:40:16.174 ] [27:INFO] res: \r\n00001\r\n\r\nOK\r\n
[ 13:40:16.174 ] [27:INFO] cmd: AT%GPS=30,2,"RMC","GGA"*D90A
[ 13:40:16.174 ] [27:INFO] res: \r\n%GPS: $GPGGA,134016.000,0100.0000,N,00100.0000,E,1,05,3.0,0.00,M,,,,0000*38\r\n$GPRMC,134016.000,A,0100.0000,N,00100.0000,E,0.00,000.00,030215,,,A*6A\r\n\r\nOK\r\n
[ 13:40:17.184 ] [27:INFO] cmd: ATS89?*47C6
[ 13:40:17.184 ] [27:INFO] res: \r\n00001\r\n\r\nOK\r\n
[ 13:40:17.184 ] [27:INFO] cmd: AT%GPS=30,2,"RMC","GGA"*D90A
[ 13:40:17.184 ] [27:INFO] res: \r\n%GPS: $GPGGA,134017.000,0100.0000,N,00100.0000,E,1,05,3.0,0.00,M,,,,0000*39\r\n$GPRMC,134017.000,A,0100.0000,N,00100.0000,E,0.00,000.00,030215,,,A*6B\r\n\r\nOK\r\n
[ 13:40:18.204 ] [27:INFO] cmd: ATS89?*47C6
[ 13:40:18.204 ] [27:INFO] res: \r\n00001\r\n\r\nOK\r\n
[ 13:40:18.204 ] [27:INFO] cmd: AT%GPS=30,2,"RMC","GGA"*D90A
[ 13:40:18.214 ] [27:INFO] res: \r\n%GPS: $GPGGA,134018.000,0100.0000,N,00100.0000,E,1,05,3.0,0.00,M,,,,0000*36\r\n$GPRMC,134018.000,A,0100.0000,N,00100.0000,E,0.00,000.00,030215,,,A*64\r\n\r\nOK\r\n
[ 13:40:19.214 ] [27:INFO] cmd: ATS89?*47C6
[ 13:40:19.214 ] [27:INFO] res: \r\n00001\r\n\r\nOK\r\n
[ 13:40:19.214 ] [27:INFO] cmd: AT%GPS=30,2,"RMC","GGA"*D90A
[ 13:40:19.214 ] [27:INFO] res: \r\n%GPS: $GPGGA,134019.000,0100.0000,N,00100.0000,E,1,05,3.0,0.00,M,,,,0000*37\r\n$GPRMC,134019.000,A,0100.0000,N,00100.0000,E,0.00,000.00,030215,,,A*65\r\n\r\nOK\r\n
[ 13:40:20.224 ] [27:INFO] cmd: ATS89?*47C6
[ 13:40:20.224 ] [27:INFO] res: \r\n00001\r\n\r\nOK\r\n
[ 13:40:20.224 ] [27:INFO] cmd: AT%GPS=30,2,"RMC","GGA"*D90A
[ 13:40:20.224 ] [27:INFO] res: \r\n%GPS: $GPGGA,134020.000,0100.0000,N,00100.0000,E,1,05,3.0,0.00,M,,,,0000*3D\r\n$GPRMC,134020.000,A,0100.0000,N,00100.0000,E,0.00,000.00,030215,,,A*6F\r\n\r\nOK\r\n
[ 13:40:21.244 ] [27:INFO] cmd: ATS89?*47C6
[ 13:40:21.244 ] [27:INFO] res: \r\n00001\r\n\r\nOK\r\n
[ 13:40:21.244 ] [27:INFO] cmd: AT%GPS=30,2,"RMC","GGA"*D90A
[ 13:40:21.244 ] [27:INFO] res: \r\n%GPS: $GPGGA,134021.000,0100.0000,N,00100.0000,E,1,05,3.0,0.00,M,,,,0000*3C\r\n$GPRMC,134021.000,A,0100.0000,N,00100.0000,E,0.00,000.00,030215,,,A*6E\r\n\r\nOK\r\n
[ 13:40:22.254 ] [27:INFO] cmd: ATS89?*47C6
[ 13:40:22.254 ] [27:INFO] res: \r\n00001\r\n\r\nOK\r\n
[ 13:40:22.254 ] [27:INFO] cmd: AT%GPS=30,2,"RMC","GGA"*D90A
[ 13:40:22.264 ] [27:INFO] res: \r\n%GPS: $GPGGA,134022.000,0100.0000,N,00100.0000,E,1,05,3.0,0.00,M,,,,0000*3F\r\n$GPRMC,134022.000,A,0100.0000,N,00100.0000,E,0.00,000.00,030215,,,A*6D\r\n\r\nOK\r\n
[ 13:40:23.274 ] [27:INFO] cmd: ATS89?*47C6
[ 13:40:23.274 ] [27:INFO] res: \r\n00001\r\n\r\nOK\r\n
[ 13:40:23.274 ] [27:INFO] cmd: AT%GPS=30,2,"RMC","GGA"*D90A
[ 13:40:23.274 ] [27:INFO] res: \r\n%GPS: $GPGGA,134023.000,0100.0000,N,00100.0000,E,1,05,3.0,0.00,M,,,,0000*3E\r\n$GPRMC,134023.000,A,0100.0000,N,00100.0000,E,0.00,000.00,030215,,,A*6C\r\n\r\nOK\r\n
[ 13:40:24.284 ] [27:INFO] cmd: ATS89?*47C6
[ 13:40:24.284 ] [27:INFO] res: \r\n00001\r\n\r\nOK\r\n
[ 13:40:24.284 ] [27:INFO] cmd: AT%GPS=30,2,"RMC","GGA"*D90A
[ 13:40:24.284 ] [27:INFO] res: \r\n%GPS: $GPGGA,134024.000,0100.0000,N,00100.0000,E,1,05,3.0,0.00,M,,,,0000*39\r\n$GPRMC,134024.000,A,0100.0000,N,00100.0000,E,0.00,000.00,030215,,,A*6B\r\n\r\nOK\r\n
[ 13:40:25.294 ] [27:INFO] cmd: ATS89?*47C6
[ 13:40:25.294 ] [27:INFO] res: \r\n00001\r\n\r\nOK\r\n
[ 13:40:25.294 ] [27:INFO] cmd: AT%GPS=30,2,"RMC","GGA"*D90A
[ 13:40:25.294 ] [27:INFO] res: \r\n%GPS: $GPGGA,134025.000,0100.0000,N,00100.0000,E,1,05,3.0,0.00,M,,,,0000*38\r\n$GPRMC,134025.000,A,0100.0000,N,00100.0000,E,0.00,000.00,030215,,,A*6A\r\n\r\nOK\r\n
[ 13:40:26.314 ] [27:INFO] cmd: ATS89?*47C6
[ 13:40:26.314 ] [27:INFO] res: \r\n00001\r\n\r\nOK\r\n
[ 13:40:26.314 ] [27:INFO] cmd: AT%GPS=30,2,"RMC","GGA"*D90A
[ 13:40:26.314 ] [27:INFO] res: \r\n%GPS: $GPGGA,134026.000,0100.0000,N,00100.0000,E,1,05,3.0,0.00,M,,,,0000*3B\r\n$GPRMC,134026.000,A,0100.0000,N,00100.0000,E,0.00,000.00,030215,,,A*69\r\n\r\nOK\r\n
[ 13:40:27.324 ] [27:INFO] cmd: ATS89?*47C6
[ 13:40:27.324 ] [27:INFO] res: \r\n00001\r\n\r\nOK\r\n
[ 13:40:27.324 ] [27:INFO] cmd: AT%GPS=30,2,"RMC","GGA"*D90A
[ 13:40:27.334 ] [27:INFO] res: \r\n%GPS: $GPGGA,134027.000,0100.0000,N,00100.0000,E,1,05,3.0,0.00,M,,,,0000*3A\r\n$GPRMC,134027.000,A,0100.0000,N,00100.0000,E,0.00,000.00,030215,,,A*68\r\n\r\nOK\r\n
[ 13:40:28.344 ] [27:INFO] cmd: ATS89?*47C6
[ 13:40:28.344 ] [27:INFO] res: \r\n00001\r\n\r\nOK\r\n
[ 13:40:28.344 ] [27:INFO] cmd: AT%GPS=30,2,"RMC","GGA"*D90A
[ 13:40:28.344 ] [27:INFO] res: \r\n%GPS: $GPGGA,134028.000,0100.0000,N,00100.0000,E,1,05,3.0,0.00,M,,,,0000*35\r\n$GPRMC,134028.000,A,0100.0000,N,00100.0000,E,0.00,000.00,030215,,,A*67\r\n\r\nOK\r\n
[ 13:40:29.354 ] [27:INFO] cmd: ATS89?*47C6
[ 13:40:29.354 ] [27:INFO] res: \r\n00001\r\n\r\nOK\r\n
[ 13:40:29.354 ] [27:INFO] cmd: AT%GPS=30,2,"RMC","GGA"*D90A
[ 13:40:29.364 ] [27:INFO] res: \r\n%GPS: $GPGGA,134029.000,0100.0000,N,00100.0000,E,1,05,3.0,0.00,M,,,,0000*34\r\n$GPRMC,134029.000,A,0100.0000,N,00100.0000,E,0.00,000.00,030215,,,A*66\r\n\r\nOK\r\n
[ 13:40:30.364 ] [27:INFO] cmd: ATS89?*47C6
[ 13:40:30.364 ] [27:INFO] res: \r\n00001\r\n\r\nOK\r\n
[ 13:40:30.364 ] [27:INFO] cmd: AT%GPS=30,2,"RMC","GGA"*D90A
[ 13:40:30.364 ] [27:INFO] res: \r\n%GPS: $GPGGA,134030.000,0100.0000,N,00100.0000,E,1,05,3.0,0.00,M,,,,0000*3C\r\n$GPRMC,134030.000,A,0100.0000,N,00100.0000,E,0.00,000.00,030215,,,A*6E\r\n\r\nOK\r\n
[ 13:40:31.384 ] [27:INFO] cmd: ATS89?*47C6
[ 13:40:31.384 ] [27:INFO] res: \r\n00001\r\n\r\nOK\r\n
[ 13:40:31.384 ] [27:INFO] cmd: AT%GPS=30,2,"RMC","GGA"*D90A
[ 13:40:31.394 ] [27:INFO] res: \r\n%GPS: $GPGGA,134031.000,0100.0000,N,00100.0000,E,1,05,3.0,0.00,M,,,,0000*3D\r\n$GPRMC,134031.000,A,0100.0000,N,00100.0000,E,0.00,000.00,030215,,,A*6F\r\n\r\nOK\r\n
[ 13:40:32.394 ] [27:INFO] cmd: ATS89?*47C6
[ 13:40:32.394 ] [27:INFO] res: \r\n00001\r\n\r\nOK\r\n
[ 13:40:32.394 ] [27:INFO] cmd: AT%GPS=30,2,"RMC","GGA"*D90A
[ 13:40:32.394 ] [27:INFO] res: \r\n%GPS: $GPGGA,134032.000,0100.0000,N,00100.0000,E,1,05,3.0,0.00,M,,,,0000*3E\r\n$GPRMC,134032.000,A,0100.0000,N,00100.0000,E,0.00,000.00,030215,,,A*6C\r\n\r\nOK\r\n
[ 13:40:33.414 ] [27:INFO] cmd: ATS89?*47C6
[ 13:40:33.414 ] [27:INFO] res: \r\n00001\r\n\r\nOK\r\n
[ 13:40:33.414 ] [27:INFO] cmd: AT%GPS=30,2,"RMC","GGA"*D90A
[ 13:40:33.424 ] [27:INFO] res: \r\n%GPS: $GPGGA,134033.000,0100.0000,N,00100.0000,E,1,05,3.0,0.00,M,,,,0000*3F\r\n$GPRMC,134033.000,A,0100.0000,N,00100.0000,E,0.00,000.00,030215,,,A*6D\r\n\r\nOK\r\n
[ 13:40:34.424 ] [27:INFO] cmd: ATS89?*47C6
[ 13:40:34.424 ] [27:INFO] res: \r\n00001\r\n\r\nOK\r\n
[ 13:40:34.424 ] [27:INFO] cmd: AT%GPS=30,2,"RMC","GGA"*D90A
[ 13:40:34.434 ] [27:INFO] res: \r\n%GPS: $GPGGA,134034.000,0100.0000,N,00100.0000,E,1,05,3.0,0.00,M,,,,0000*38\r\n$GPRMC,134034.000,A,0100.0000,N,00100.0000,E,0.00,000.00,030215,,,A*6A\r\n\r\nOK\r\n
[ 13:40:35.434 ] [27:INFO] cmd: ATS89?*47C6
[ 13:40:35.434 ] [27:INFO] res: \r\n00001\r\n\r\nOK\r\n
[ 13:40:35.434 ] [27:INFO] cmd: AT%GPS=30,2,"RMC","GGA"*D90A
[ 13:40:35.444 ] [27:INFO] res: \r\n%GPS: $GPGGA,134035.000,0100.0000,N,00100.0000,E,1,05,3.0,0.00,M,,,,0000*39\r\n$GPRMC,134035.000,A,0100.0000,N,00100.0000,E,0.00,000.00,030215,,,A*6B\r\n\r\nOK\r\n
[ 13:40:36.454 ] [27:INFO] cmd: ATS89?*47C6
[ 13:40:36.464 ] [27:INFO] res: \r\n00001\r\n\r\nOK\r\n
[ 13:40:36.464 ] [27:INFO] cmd: AT%GPS=30,2,"RMC","GGA"*D90A
[ 13:40:36.474 ] [27:INFO] res: \r\n%GPS: $GPGGA,134036.000,0100.0000,N,00100.0000,E,1,05,3.0,0.00,M,,,,0000*3A\r\n$GPRMC,134036.000,A,0100.0000,N,00100.0000,E,0.00,000.00,030215,,,A*68\r\n\r\nOK\r\n
[ 13:40:37.464 ] [27:INFO] cmd: ATS89?*47C6
[ 13:40:37.464 ] [27:INFO] res: \r\n00001\r\n\r\nOK\r\n
[ 13:40:37.464 ] [27:INFO] cmd: AT%GPS=30,2,"RMC","GGA"*D90A
[ 13:40:37.474 ] [27:INFO] res: \r\n%GPS: $GPGGA,134037.000,0100.0000,N,00100.0000,E,1,05,3.0,0.00,M,,,,0000*3B\r\n$GPRMC,134037.000,A,0100.0000,N,00100.0000,E,0.00,000.00,030215,,,A*69\r\n\r\nOK\r\n
[ 13:40:38.484 ] [27:INFO] cmd: ATS89?*47C6
[ 13:40:38.484 ] [27:INFO] res: \r\n00001\r\n\r\nOK\r\n
[ 13:40:38.484 ] [27:INFO] cmd: AT%GPS=30,2,"RMC","GGA"*D90A
[ 13:40:38.484 ] [27:INFO] res: \r\n%GPS: $GPGGA,134038.000,0100.0000,N,00100.0000,E,1,05,3.0,0.00,M,,,,0000*34\r\n$GPRMC,134038.000,A,0100.0000,N,00100.0000,E,0.00,000.00,030215,,,A*66\r\n\r\nOK\r\n
[ 13:40:39.494 ] [27:INFO] cmd: ATS89?*47C6
[ 13:40:39.494 ] [27:INFO] res: \r\n00001\r\n\r\nOK\r\n
[ 13:40:39.494 ] [27:INFO] cmd: AT%GPS=30,2,"RMC","GGA"*D90A
[ 13:40:39.494 ] [27:INFO] res: \r\n%GPS: $GPGGA,134039.000,0100.0000,N,00100.0000,E,1,05,3.0,0.00,M,,,,0000*35\r\n$GPRMC,134039.000,A,0100.0000,N,00100.0000,E,0.00,000.00,030215,,,A*67\r\n\r\nOK\r\n
[ 13:40:40.504 ] [27:INFO] cmd: ATS89?*47C6
[ 13:40:40.504 ] [27:INFO] res: \r\n00001\r\n\r\nOK\r\n
[ 13:40:40.504 ] [27:INFO] cmd: AT%GPS=30,2,"RMC","GGA"*D90A
[ 13:40:40.504 ] [27:INFO] res: \r\n%GPS: $GPGGA,134040.000,0100.0000,N,00100.0000,E,1,05,3.0,0.00,M,,,,0000*3B\r\n$GPRMC,134040.000,A,0100.0000,N,00100.0000,E,0.00,000.00,030215,,,A*69\r\n\r\nOK\r\n
[ 13:40:41.524 ] [27:INFO] cmd: ATS89?*47C6
[ 13:40:41.524 ] [27:INFO] res: \r\n00001\r\n\r\nOK\r\n
[ 13:40:41.524 ] [27:INFO] cmd: AT%GPS=30,2,"RMC","GGA"*D90A
[ 13:40:41.524 ] [27:INFO] res: \r\n%GPS: $GPGGA,134041.000,0100.0000,N,00100.0000,E,1,05,3.0,0.00,M,,,,0000*3A\r\n$GPRMC,134041.000,A,0100.0000,N,00100.0000,E,0.00,000.00,030215,,,A*68\r\n\r\nOK\r\n
[ 13:40:42.534 ] [27:INFO] cmd: ATS89?*47C6
[ 13:40:42.534 ] [27:INFO] res: \r\n00001\r\n\r\nOK\r\n
[ 13:40:42.534 ] [27:INFO] cmd: AT%GPS=30,2,"RMC","GGA"*D90A
[ 13:40:42.544 ] [27:INFO] res: \r\n%GPS: $GPGGA,134042.000,0100.0000,N,00100.0000,E,1,05,3.0,0.00,M,,,,0000*39\r\n$GPRMC,134042.000,A,0100.0000,N,00100.0000,E,0.00,000.00,030215,,,A*6B\r\n\r\nOK\r\n
[ 13:40:43.554 ] [27:INFO] cmd: ATS89?*47C6
[ 13:40:43.554 ] [27:INFO] res: \r\n00001\r\n\r\nOK\r\n
[ 13:40:43.554 ] [27:INFO] cmd: AT%GPS=30,2,"RMC","GGA"*D90A
[ 13:40:43.574 ] [27:INFO] res: \r\n%GPS: $GPGGA,134043.000,0100.0000,N,00100.0000,E,1,05,3.0,0.00,M,,,,0000*38\r\n$GPRMC,134043.000,A,0100.0000,N,00100.0000,E,0.00,000.00,030215,,,A*6A\r\n\r\nOK\r\n
[ 13:40:44.564 ] [27:INFO] cmd: ATS89?*47C6
[ 13:40:44.564 ] [27:INFO] res: \r\n00001\r\n\r\nOK\r\n
[ 13:40:44.564 ] [27:INFO] cmd: AT%GPS=30,2,"RMC","GGA"*D90A
[ 13:40:44.564 ] [27:INFO] res: \r\n%GPS: $GPGGA,134044.000,0100.0000,N,00100.0000,E,1,05,3.0,0.00,M,,,,0000*3F\r\n$GPRMC,134044.000,A,0100.0000,N,00100.0000,E,0.00,000.00,030215,,,A*6D\r\n\r\nOK\r\n
[ 13:40:45.574 ] [27:INFO] cmd: ATS89?*47C6
[ 13:40:45.574 ] [27:INFO] res: \r\n00001\r\n\r\nOK\r\n
[ 13:40:45.574 ] [27:INFO] cmd: AT%GPS=30,2,"RMC","GGA"*D90A
[ 13:40:45.584 ] [27:INFO] res: \r\n%GPS: $GPGGA,134045.000,0100.0000,N,00100.0000,E,1,05,3.0,0.00,M,,,,0000*3E\r\n$GPRMC,134045.000,A,0100.0000,N,00100.0000,E,0.00,000.00,030215,,,A*6C\r\n\r\nOK\r\n
[ 13:40:46.594 ] [27:INFO] cmd: ATS89?*47C6
[ 13:40:46.594 ] [27:INFO] res: \r\n00001\r\n\r\nOK\r\n
[ 13:40:46.594 ] [27:INFO] cmd: AT%GPS=30,2,"RMC","GGA"*D90A
[ 13:40:46.594 ] [27:INFO] res: \r\n%GPS: $GPGGA,134046.000,0100.0000,N,00100.0000,E,1,05,3.0,0.00,M,,,,0000*3D\r\n$GPRMC,134046.000,A,0100.0000,N,00100.0000,E,0.00,000.00,030215,,,A*6F\r\n\r\nOK\r\n
[ 13:40:47.604 ] [27:INFO] cmd: ATS89?*47C6
[ 13:40:47.604 ] [27:INFO] res: \r\n00001\r\n\r\nOK\r\n
[ 13:40:47.604 ] [27:INFO] cmd: AT%GPS=30,2,"RMC","GGA"*D90A
[ 13:40:47.604 ] [27:INFO] res: \r\n%GPS: $GPGGA,134047.000,0100.0000,N,00100.0000,E,1,05,3.0,0.00,M,,,,0000*3C\r\n$GPRMC,134047.000,A,0100.0000,N,00100.0000,E,0.00,000.00,030215,,,A*6E\r\n\r\nOK\r\n
[ 13:40:48.624 ] [27:INFO] cmd: ATS89?*47C6
[ 13:40:48.624 ] [27:INFO] res: \r\n00001\r\n\r\nOK\r\n
[ 13:40:48.624 ] [27:INFO] cmd: AT%GPS=30,2,"RMC","GGA"*D90A
[ 13:40:48.634 ] [27:INFO] res: \r\n%GPS: $GPGGA,134048.000,0100.0000,N,00100.0000,E,1,05,3.0,0.00,M,,,,0000*33\r\n$GPRMC,134048.000,A,0100.0000,N,00100.0000,E,0.00,000.00,030215,,,A*61\r\n\r\nOK\r\n
[ 13:40:49.634 ] [27:INFO] cmd: ATS89?*47C6
[ 13:40:49.634 ] [27:INFO] res: \r\n00001\r\n\r\nOK\r\n
[ 13:40:49.634 ] [27:INFO] cmd: AT%GPS=30,2,"RMC","GGA"*D90A
[ 13:40:49.644 ] [27:INFO] res: \r\n%GPS: $GPGGA,134049.000,0100.0000,N,00100.0000,E,1,05,3.0,0.00,M,,,,0000*32\r\n$GPRMC,134049.000,A,0100.0000,N,00100.0000,E,0.00,000.00,030215,,,A*60\r\n\r\nOK\r\n
[ 13:40:50.644 ] [27:INFO] cmd: ATS89?*47C6
[ 13:40:50.644 ] [27:INFO] res: \r\n00001\r\n\r\nOK\r\n
[ 13:40:50.644 ] [27:INFO] cmd: AT%GPS=30,2,"RMC","GGA"*D90A
[ 13:40:50.644 ] [27:INFO] res: \r\n%GPS: $GPGGA,134050.000,0100.0000,N,00100.0000,E,1,05,3.0,0.00,M,,,,0000*3A\r\n$GPRMC,134050.000,A,0100.0000,N,00100.0000,E,0.00,000.00,030215,,,A*68\r\n\r\nOK\r\n
[ 13:40:51.664 ] [27:INFO] cmd: ATS89?*47C6
[ 13:40:51.664 ] [27:INFO] res: \r\n00001\r\n\r\nOK\r\n
[ 13:40:51.664 ] [27:INFO] cmd: AT%GPS=30,2,"RMC","GGA"*D90A
[ 13:40:51.664 ] [27:INFO] res: \r\n%GPS: $GPGGA,134051.000,0100.0000,N,00100.0000,E,1,05,3.0,0.00,M,,,,0000*3B\r\n$GPRMC,134051.000,A,0100.0000,N,00100.0000,E,0.00,000.00,030215,,,A*69\r\n\r\nOK\r\n
[ 13:40:52.674 ] [27:INFO] cmd: ATS89?*47C6
[ 13:40:52.674 ] [27:INFO] res: \r\n00001\r\n\r\nOK\r\n
[ 13:40:52.674 ] [27:INFO] cmd: AT%GPS=30,2,"RMC","GGA"*D90A
[ 13:40:52.674 ] [27:INFO] res: \r\n%GPS: $GPGGA,134052.000,0100.0000,N,00100.0000,E,1,05,3.0,0.00,M,,,,0000*38\r\n$GPRMC,134052.000,A,0100.0000,N,00100.0000,E,0.00,000.00,030215,,,A*6A\r\n\r\nOK\r\n
[ 13:40:53.694 ] [27:INFO] cmd: ATS89?*47C6
[ 13:40:53.694 ] [27:INFO] res: \r\n00001\r\n\r\nOK\r\n
[ 13:40:53.694 ] [27:INFO] cmd: AT%GPS=30,2,"RMC","GGA"*D90A
[ 13:40:53.694 ] [27:INFO] res: \r\n%GPS: $GPGGA,134053.000,0100.0000,N,00100.0000,E,1,05,3.0,0.00,M,,,,0000*39\r\n$GPRMC,134053.000,A,0100.0000,N,00100.0000,E,0.00,000.00,030215,,,A*6B\r\n\r\nOK\r\n
[ 13:40:54.704 ] [27:INFO] cmd: ATS89?*47C6
[ 13:40:54.704 ] [27:INFO] res: \r\n00001\r\n\r\nOK\r\n
[ 13:40:54.704 ] [27:INFO] cmd: AT%GPS=30,2,"RMC","GGA"*D90A
[ 13:40:54.714 ] [27:INFO] res: \r\n%GPS: $GPGGA,134054.000,0100.0000,N,00100.0000,E,1,05,3.0,0.00,M,,,,0000*3E\r\n$GPRMC,134054.000,A,0100.0000,N,00100.0000,E,0.00,000.00,030215,,,A*6C\r\n\r\nOK\r\n
[ 13:40:55.714 ] [27:INFO] cmd: ATS89?*47C6
[ 13:40:55.724 ] [27:INFO] res: \r\n00001\r\n\r\nOK\r\n
[ 13:40:55.724 ] [27:INFO] cmd: AT%GPS=30,2,"RMC","GGA"*D90A
[ 13:40:55.734 ] [27:INFO] res: \r\n%GPS: $GPGGA,134055.000,0100.0000,N,00100.0000,E,1,05,3.0,0.00,M,,,,0000*3F\r\n$GPRMC,134055.000,A,0100.0000,N,00100.0000,E,0.00,000.00,030215,,,A*6D\r\n\r\nOK\r\n
[ 13:40:56.734 ] [27:INFO] cmd: ATS89?*47C6
[ 13:40:56.734 ] [27:INFO] res: \r\n00001\r\n\r\nOK\r\n
[ 13:40:56.734 ] [27:INFO] cmd: AT%GPS=30,2,"RMC","GGA"*D90A
[ 13:40:56.734 ] [27:INFO] res: \r\n%GPS: $GPGGA,134056.000,0100.0000,N,00100.0000,E,1,05,3.0,0.00,M,,,,0000*3C\r\n$GPRMC,134056.000,A,0100.0000,N,00100.0000,E,0.00,000.00,030215,,,A*6E\r\n\r\nOK\r\n
[ 13:40:57.744 ] [27:INFO] cmd: ATS89?*47C6
[ 13:40:57.744 ] [27:INFO] res: \r\n00001\r\n\r\nOK\r\n
[ 13:40:57.744 ] [27:INFO] cmd: AT%GPS=30,2,"RMC","GGA"*D90A
[ 13:40:57.744 ] [27:INFO] res: \r\n%GPS: $GPGGA,134057.000,0100.0000,N,00100.0000,E,1,05,3.0,0.00,M,,,,0000*3D\r\n$GPRMC,134057.000,A,0100.0000,N,00100.0000,E,0.00,000.00,030215,,,A*6F\r\n\r\nOK\r\n
[ 13:40:58.764 ] [27:INFO] cmd: ATS89?*47C6
[ 13:40:58.764 ] [27:INFO] res: \r\n00001\r\n\r\nOK\r\n
[ 13:40:58.764 ] [27:INFO] cmd: AT%GPS=30,2,"RMC","GGA"*D90A
[ 13:40:58.794 ] [27:INFO] res: \r\n%GPS: $GPGGA,134058.000,0100.0000,N,00100.0000,E,1,05,3.0,0.00,M,,,,0000*32\r\n$GPRMC,134058.000,A,0100.0000,N,00100.0000,E,0.00,000.00,030215,,,A*60\r\n\r\nOK\r\n
[ 13:40:59.774 ] [27:INFO] cmd: ATS89?*47C6
[ 13:40:59.774 ] [27:INFO] res: \r\n00001\r\n\r\nOK\r\n
[ 13:40:59.784 ] [27:INFO] cmd: AT%GPS=30,2,"RMC","GGA"*D90A
[ 13:40:59.794 ] [27:INFO] res: \r\n%GPS: $GPGGA,134059.000,0100.0000,N,00100.0000,E,1,05,3.0,0.00,M,,,,0000*33\r\n$GPRMC,134059.000,A,0100.0000,N,00100.0000,E,0.00,000.00,030215,,,A*61\r\n\r\nOK\r\n
[ 13:41:00.784 ] [27:INFO] cmd: ATS89?*47C6
[ 13:41:00.784 ] [27:INFO] res: \r\n00001\r\n\r\nOK\r\n
[ 13:41:00.784 ] [27:INFO] cmd: AT%GPS=30,2,"RMC","GGA"*D90A
[ 13:41:00.794 ] [27:INFO] res: \r\n%GPS: $GPGGA,134100.000,0100.0000,N,00100.0000,E,1,05,3.0,0.00,M,,,,0000*3E\r\n$GPRMC,134100.000,A,0100.0000,N,00100.0000,E,0.00,000.00,030215,,,A*6C\r\n\r\nOK\r\n
[ 13:41:01.804 ] [27:INFO] cmd: ATS89?*47C6
[ 13:41:01.804 ] [27:INFO] res: \r\n00001\r\n\r\nOK\r\n
[ 13:41:01.814 ] [27:INFO] cmd: AT%GPS=30,2,"RMC","GGA"*D90A
[ 13:41:01.824 ] [27:INFO] res: \r\n%GPS: $GPGGA,134101.000,0100.0000,N,00100.0000,E,1,05,3.0,0.00,M,,,,0000*3F\r\n$GPRMC,134101.000,A,0100.0000,N,00100.0000,E,0.00,000.00,030215,,,A*6D\r\n\r\nOK\r\n
[ 13:41:02.814 ] [27:INFO] cmd: ATS89?*47C6
[ 13:41:02.814 ] [27:INFO] res: \r\n00001\r\n\r\nOK\r\n
[ 13:41:02.814 ] [27:INFO] cmd: AT%GPS=30,2,"RMC","GGA"*D90A
[ 13:41:02.814 ] [27:INFO] res: \r\n%GPS: $GPGGA,134102.000,0100.0000,N,00100.0000,E,1,05,3.0,0.00,M,,,,0000*3C\r\n$GPRMC,134102.000,A,0100.0000,N,00100.0000,E,0.00,000.00,030215,,,A*6E\r\n\r\nOK\r\n
[ 13:41:03.834 ] [27:INFO] cmd: ATS89?*47C6
[ 13:41:03.834 ] [27:INFO] res: \r\n00001\r\n\r\nOK\r\n
[ 13:41:03.834 ] [27:INFO] cmd: AT%GPS=30,2,"RMC","GGA"*D90A
[ 13:41:03.834 ] [27:INFO] res: \r\n%GPS: $GPGGA,134103.000,0100.0000,N,00100.0000,E,1,05,3.0,0.00,M,,,,0000*3D\r\n$GPRMC,134103.000,A,0100.0000,N,00100.0000,E,0.00,000.00,030215,,,A*6F\r\n\r\nOK\r\n
[ 13:41:04.844 ] [27:INFO] cmd: ATS89?*47C6
[ 13:41:04.844 ] [27:INFO] res: \r\n00001\r\n\r\nOK\r\n
[ 13:41:04.844 ] [27:INFO] cmd: AT%GPS=30,2,"RMC","GGA"*D90A
[ 13:41:04.844 ] [27:INFO] res: \r\n%GPS: $GPGGA,134104.000,0100.0000,N,00100.0000,E,1,05,3.0,0.00,M,,,,0000*3A\r\n$GPRMC,134104.000,A,0100.0000,N,00100.0000,E,0.00,000.00,030215,,,A*68\r\n\r\nOK\r\n
[ 13:41:05.854 ] [27:INFO] cmd: ATS89?*47C6
[ 13:41:05.854 ] [27:INFO] res: \r\n00001\r\n\r\nOK\r\n
[ 13:41:05.854 ] [27:INFO] cmd: AT%GPS=30,2,"RMC","GGA"*D90A
[ 13:41:05.854 ] [27:INFO] res: \r\n%GPS: $GPGGA,134105.000,0100.0000,N,00100.0000,E,1,05,3.0,0.00,M,,,,0000*3B\r\n$GPRMC,134105.000,A,0100.0000,N,00100.0000,E,0.00,000.00,030215,,,A*69\r\n\r\nOK\r\n
[ 13:41:06.874 ] [27:INFO] cmd: ATS89?*47C6
[ 13:41:06.874 ] [27:INFO] res: \r\n00001\r\n\r\nOK\r\n
[ 13:41:06.874 ] [27:INFO] cmd: AT%GPS=30,2,"RMC","GGA"*D90A
[ 13:41:06.874 ] [27:INFO] res: \r\n%GPS: $GPGGA,134106.000,0100.0000,N,00100.0000,E,1,05,3.0,0.00,M,,,,0000*38\r\n$GPRMC,134106.000,A,0100.0000,N,00100.0000,E,0.00,000.00,030215,,,A*6A\r\n\r\nOK\r\n
[ 13:41:07.884 ] [27:INFO] cmd: ATS89?*47C6
[ 13:41:07.884 ] [27:INFO] res: \r\n00001\r\n\r\nOK\r\n
[ 13:41:07.884 ] [27:INFO] cmd: AT%GPS=30,2,"RMC","GGA"*D90A
[ 13:41:07.884 ] [27:INFO] res: \r\n%GPS: $GPGGA,134107.000,0100.0000,N,00100.0000,E,1,05,3.0,0.00,M,,,,0000*39\r\n$GPRMC,134107.000,A,0100.0000,N,00100.0000,E,0.00,000.00,030215,,,A*6B\r\n\r\nOK\r\n
[ 13:41:08.904 ] [27:INFO] cmd: ATS89?*47C6
[ 13:41:08.904 ] [27:INFO] res: \r\n00001\r\n\r\nOK\r\n
[ 13:41:08.904 ] [27:INFO] cmd: AT%GPS=30,2,"RMC","GGA"*D90A
[ 13:41:08.904 ] [27:INFO] res: \r\n%GPS: $GPGGA,134108.000,0100.0000,N,00100.0000,E,1,05,3.0,0.00,M,,,,0000*36\r\n$GPRMC,134108.000,A,0100.0000,N,00100.0000,E,0.00,000.00,030215,,,A*64\r\n\r\nOK\r\n
[ 13:41:09.914 ] [27:INFO] cmd: ATS89?*47C6
[ 13:41:09.914 ] [27:INFO] res: \r\n00001\r\n\r\nOK\r\n
[ 13:41:09.914 ] [27:INFO] cmd: AT%GPS=30,2,"RMC","GGA"*D90A
[ 13:41:09.914 ] [27:INFO] res: \r\n%GPS: $GPGGA,134109.000,0100.0000,N,00100.0000,E,1,05,3.0,0.00,M,,,,0000*37\r\n$GPRMC,134109.000,A,0100.0000,N,00100.0000,E,0.00,000.00,030215,,,A*65\r\n\r\nOK\r\n
[ 13:41:10.924 ] [27:INFO] cmd: ATS89?*47C6
[ 13:41:10.924 ] [27:INFO] res: \r\n00001\r\n\r\nOK\r\n
[ 13:41:10.924 ] [27:INFO] cmd: AT%GPS=30,2,"RMC","GGA"*D90A
[ 13:41:10.924 ] [27:INFO] res: \r\n%GPS: $GPGGA,134110.000,0100.0000,N,00100.0000,E,1,05,3.0,0.00,M,,,,0000*3F\r\n$GPRMC,134110.000,A,0100.0000,N,00100.0000,E,0.00,000.00,030215,,,A*6D\r\n\r\nOK\r\n
[ 13:41:11.224 ] [115:INFO] Event GpsBlocked state unchanged
[ 13:41:11.224 ] [27:INFO] cmd: AT%EVNT=3,1*BC22
[ 13:41:11.234 ] [27:INFO] res: \r\n%EVNT: 24,16777215,0,444663667,3,1,4,98534,0,0,0,0,0,0,0,0,0,0,0,0,0,0,0,0,0,0,257,0,0,0,0\r\n\r\nOK\r\n
[ 13:41:11.234 ] [115:INFO] Event IdpBlocked state unchanged
[ 13:41:11.954 ] [27:INFO] cmd: ATS89?*47C6
[ 13:41:11.954 ] [27:INFO] res: \r\n00001\r\n\r\nOK\r\n
[ 13:41:11.954 ] [27:INFO] cmd: AT%GPS=30,2,"RMC","GGA"*D90A
[ 13:41:11.954 ] [27:INFO] res: \r\n%GPS: $GPGGA,134111.000,0100.0000,N,00100.0000,E,1,05,3.0,0.00,M,,,,0000*3E\r\n$GPRMC,134111.000,A,0100.0000,N,00100.0000,E,0.00,000.00,030215,,,A*6C\r\n\r\nOK\r\n
[ 13:41:12.974 ] [27:INFO] cmd: ATS89?*47C6
[ 13:41:12.974 ] [27:INFO] res: \r\n00001\r\n\r\nOK\r\n
[ 13:41:12.974 ] [27:INFO] cmd: AT%GPS=30,2,"RMC","GGA"*D90A
[ 13:41:12.984 ] [27:INFO] res: \r\n%GPS: $GPGGA,134112.000,0100.0000,N,00100.0000,E,1,05,3.0,0.00,M,,,,0000*3D\r\n$GPRMC,134112.000,A,0100.0000,N,00100.0000,E,0.00,000.00,030215,,,A*6F\r\n\r\nOK\r\n
[ 13:41:13.984 ] [27:INFO] cmd: ATS89?*47C6
[ 13:41:13.984 ] [27:INFO] res: \r\n00001\r\n\r\nOK\r\n
[ 13:41:13.984 ] [27:INFO] cmd: AT%GPS=30,2,"RMC","GGA"*D90A
[ 13:41:13.994 ] [27:INFO] res: \r\n%GPS: $GPGGA,134113.000,0100.0000,N,00100.0000,E,1,05,3.0,0.00,M,,,,0000*3C\r\n$GPRMC,134113.000,A,0100.0000,N,00100.0000,E,0.00,000.00,030215,,,A*6E\r\n\r\nOK\r\n
[ 13:41:15.004 ] [27:INFO] cmd: ATS89?*47C6
[ 13:41:15.004 ] [27:INFO] res: \r\n00001\r\n\r\nOK\r\n
[ 13:41:15.004 ] [27:INFO] cmd: AT%GPS=30,2,"RMC","GGA"*D90A
[ 13:41:15.014 ] [27:INFO] res: \r\n%GPS: $GPGGA,134115.000,0100.0000,N,00100.0000,E,1,05,3.0,0.00,M,,,,0000*3A\r\n$GPRMC,134115.000,A,0100.0000,N,00100.0000,E,0.00,000.00,030215,,,A*68\r\n\r\nOK\r\n
[ 13:41:16.014 ] [27:INFO] cmd: ATS89?*47C6
[ 13:41:16.014 ] [27:INFO] res: \r\n00001\r\n\r\nOK\r\n
[ 13:41:16.014 ] [27:INFO] cmd: AT%GPS=30,2,"RMC","GGA"*D90A
[ 13:41:16.034 ] [27:INFO] res: \r\n%GPS: $GPGGA,134116.000,0100.0000,N,00100.0000,E,1,05,3.0,0.00,M,,,,0000*39\r\n$GPRMC,134116.000,A,0100.0000,N,00100.0000,E,0.00,000.00,030215,,,A*6B\r\n\r\nOK\r\n
[ 13:41:17.024 ] [27:INFO] cmd: ATS89?*47C6
[ 13:41:17.034 ] [27:INFO] res: \r\n00001\r\n\r\nOK\r\n
[ 13:41:17.034 ] [27:INFO] cmd: AT%GPS=30,2,"RMC","GGA"*D90A
[ 13:41:17.034 ] [27:INFO] res: \r\n%GPS: $GPGGA,134117.000,0100.0000,N,00100.0000,E,1,05,3.0,0.00,M,,,,0000*38\r\n$GPRMC,134117.000,A,0100.0000,N,00100.0000,E,0.00,000.00,030215,,,A*6A\r\n\r\nOK\r\n
[ 13:41:18.044 ] [27:INFO] cmd: ATS89?*47C6
[ 13:41:18.044 ] [27:INFO] res: \r\n00001\r\n\r\nOK\r\n
[ 13:41:18.044 ] [27:INFO] cmd: AT%GPS=30,2,"RMC","GGA"*D90A
[ 13:41:18.044 ] [27:INFO] res: \r\n%GPS: $GPGGA,134118.000,0100.0000,N,00100.0000,E,1,05,3.0,0.00,M,,,,0000*37\r\n$GPRMC,134118.000,A,0100.0000,N,00100.0000,E,0.00,000.00,030215,,,A*65\r\n\r\nOK\r\n
[ 13:41:19.054 ] [27:INFO] cmd: ATS89?*47C6
[ 13:41:19.054 ] [27:INFO] res: \r\n00001\r\n\r\nOK\r\n
[ 13:41:19.054 ] [27:INFO] cmd: AT%GPS=30,2,"RMC","GGA"*D90A
[ 13:41:19.064 ] [27:INFO] res: \r\n%GPS: $GPGGA,134119.000,0100.0000,N,00100.0000,E,1,05,3.0,0.00,M,,,,0000*36\r\n$GPRMC,134119.000,A,0100.0000,N,00100.0000,E,0.00,000.00,030215,,,A*64\r\n\r\nOK\r\n
[ 13:41:20.074 ] [27:INFO] cmd: ATS89?*47C6
[ 13:41:20.074 ] [27:INFO] res: \r\n00001\r\n\r\nOK\r\n
[ 13:41:20.074 ] [27:INFO] cmd: AT%GPS=30,2,"RMC","GGA"*D90A
[ 13:41:20.074 ] [27:INFO] res: \r\n%GPS: $GPGGA,134120.000,0100.0000,N,00100.0000,E,1,05,3.0,0.00,M,,,,0000*3C\r\n$GPRMC,134120.000,A,0100.0000,N,00100.0000,E,0.00,000.00,030215,,,A*6E\r\n\r\nOK\r\n
[ 13:41:21.084 ] [27:INFO] cmd: ATS89?*47C6
[ 13:41:21.084 ] [27:INFO] res: \r\n00001\r\n\r\nOK\r\n
[ 13:41:21.084 ] [27:INFO] cmd: AT%GPS=30,2,"RMC","GGA"*D90A
[ 13:41:21.084 ] [27:INFO] res: \r\n%GPS: $GPGGA,134121.000,0100.0000,N,00100.0000,E,1,05,3.0,0.00,M,,,,0000*3D\r\n$GPRMC,134121.000,A,0100.0000,N,00100.0000,E,0.00,000.00,030215,,,A*6F\r\n\r\nOK\r\n
[ 13:41:22.094 ] [27:INFO] cmd: ATS89?*47C6
[ 13:41:22.094 ] [27:INFO] res: \r\n00001\r\n\r\nOK\r\n
[ 13:41:22.094 ] [27:INFO] cmd: AT%GPS=30,2,"RMC","GGA"*D90A
[ 13:41:22.094 ] [27:INFO] res: \r\n%GPS: $GPGGA,134122.000,0100.0000,N,00100.0000,E,1,05,3.0,0.00,M,,,,0000*3E\r\n$GPRMC,134122.000,A,0100.0000,N,00100.0000,E,0.00,000.00,030215,,,A*6C\r\n\r\nOK\r\n
[ 13:41:23.114 ] [27:INFO] cmd: ATS89?*47C6
[ 13:41:23.114 ] [27:INFO] res: \r\n00001\r\n\r\nOK\r\n
[ 13:41:23.114 ] [27:INFO] cmd: AT%GPS=30,2,"RMC","GGA"*D90A
[ 13:41:23.114 ] [27:INFO] res: \r\n%GPS: $GPGGA,134123.000,0100.0000,N,00100.0000,E,1,05,3.0,0.00,M,,,,0000*3F\r\n$GPRMC,134123.000,A,0100.0000,N,00100.0000,E,0.00,000.00,030215,,,A*6D\r\n\r\nOK\r\n
[ 13:41:24.124 ] [27:INFO] cmd: ATS89?*47C6
[ 13:41:24.124 ] [27:INFO] res: \r\n00001\r\n\r\nOK\r\n
[ 13:41:24.124 ] [27:INFO] cmd: AT%GPS=30,2,"RMC","GGA"*D90A
[ 13:41:24.124 ] [27:INFO] res: \r\n%GPS: $GPGGA,134124.000,0100.0000,N,00100.0000,E,1,05,3.0,0.00,M,,,,0000*38\r\n$GPRMC,134124.000,A,0100.0000,N,00100.0000,E,0.00,000.00,030215,,,A*6A\r\n\r\nOK\r\n
[ 13:41:25.144 ] [27:INFO] cmd: ATS89?*47C6
[ 13:41:25.144 ] [27:INFO] res: \r\n00001\r\n\r\nOK\r\n
[ 13:41:25.144 ] [27:INFO] cmd: AT%GPS=30,2,"RMC","GGA"*D90A
[ 13:41:25.144 ] [27:INFO] res: \r\n%GPS: $GPGGA,134125.000,0100.0000,N,00100.0000,E,1,05,3.0,0.00,M,,,,0000*39\r\n$GPRMC,134125.000,A,0100.0000,N,00100.0000,E,0.00,000.00,030215,,,A*6B\r\n\r\nOK\r\n
[ 13:41:26.154 ] [27:INFO] cmd: ATS89?*47C6
[ 13:41:26.154 ] [27:INFO] res: \r\n00001\r\n\r\nOK\r\n
[ 13:41:26.154 ] [27:INFO] cmd: AT%GPS=30,2,"RMC","GGA"*D90A
[ 13:41:26.154 ] [27:INFO] res: \r\n%GPS: $GPGGA,134126.000,0100.0000,N,00100.0000,E,1,05,3.0,0.00,M,,,,0000*3A\r\n$GPRMC,134126.000,A,0100.0000,N,00100.0000,E,0.00,000.00,030215,,,A*68\r\n\r\nOK\r\n
[ 13:41:27.164 ] [27:INFO] cmd: ATS89?*47C6
[ 13:41:27.164 ] [27:INFO] res: \r\n00001\r\n\r\nOK\r\n
[ 13:41:27.164 ] [27:INFO] cmd: AT%GPS=30,2,"RMC","GGA"*D90A
[ 13:41:27.164 ] [27:INFO] res: \r\n%GPS: $GPGGA,134127.000,0100.0000,N,00100.0000,E,1,05,3.0,0.00,M,,,,0000*3B\r\n$GPRMC,134127.000,A,0100.0000,N,00100.0000,E,0.00,000.00,030215,,,A*69\r\n\r\nOK\r\n
[ 13:41:28.184 ] [27:INFO] cmd: ATS89?*47C6
[ 13:41:28.184 ] [27:INFO] res: \r\n00001\r\n\r\nOK\r\n
[ 13:41:28.184 ] [27:INFO] cmd: AT%GPS=30,2,"RMC","GGA"*D90A
[ 13:41:28.184 ] [27:INFO] res: \r\n%GPS: $GPGGA,134128.000,0100.0000,N,00100.0000,E,1,05,3.0,0.00,M,,,,0000*34\r\n$GPRMC,134128.000,A,0100.0000,N,00100.0000,E,0.00,000.00,030215,,,A*66\r\n\r\nOK\r\n
[ 13:41:29.195 ] [27:INFO] cmd: ATS89?*47C6
[ 13:41:29.195 ] [27:INFO] res: \r\n00001\r\n\r\nOK\r\n
[ 13:41:29.195 ] [27:INFO] cmd: AT%GPS=30,2,"RMC","GGA"*D90A
[ 13:41:29.195 ] [27:INFO] res: \r\n%GPS: $GPGGA,134129.000,0100.0000,N,00100.0000,E,1,05,3.0,0.00,M,,,,0000*35\r\n$GPRMC,134129.000,A,0100.0000,N,00100.0000,E,0.00,000.00,030215,,,A*67\r\n\r\nOK\r\n
[ 13:41:30.215 ] [27:INFO] cmd: ATS89?*47C6
[ 13:41:30.215 ] [27:INFO] res: \r\n00001\r\n\r\nOK\r\n
[ 13:41:30.215 ] [27:INFO] cmd: AT%GPS=30,2,"RMC","GGA"*D90A
[ 13:41:30.225 ] [27:INFO] res: \r\n%GPS: $GPGGA,134130.000,0100.0000,N,00100.0000,E,1,05,3.0,0.00,M,,,,0000*3D\r\n$GPRMC,134130.000,A,0100.0000,N,00100.0000,E,0.00,000.00,030215,,,A*6F\r\n\r\nOK\r\n
[ 13:41:31.225 ] [27:INFO] cmd: ATS89?*47C6
[ 13:41:31.225 ] [27:INFO] res: \r\n00001\r\n\r\nOK\r\n
[ 13:41:31.225 ] [27:INFO] cmd: AT%GPS=30,2,"RMC","GGA"*D90A
[ 13:41:31.225 ] [27:INFO] res: \r\n%GPS: $GPGGA,134131.000,0100.0000,N,00100.0000,E,1,05,3.0,0.00,M,,,,0000*3C\r\n$GPRMC,134131.000,A,0100.0000,N,00100.0000,E,0.00,000.00,030215,,,A*6E\r\n\r\nOK\r\n
[ 13:41:32.235 ] [27:INFO] cmd: ATS89?*47C6
[ 13:41:32.235 ] [27:INFO] res: \r\n00001\r\n\r\nOK\r\n
[ 13:41:32.235 ] [27:INFO] cmd: AT%GPS=30,2,"RMC","GGA"*D90A
[ 13:41:32.245 ] [27:INFO] res: \r\n%GPS: $GPGGA,134132.000,0100.0000,N,00100.0000,E,1,05,3.0,0.00,M,,,,0000*3F\r\n$GPRMC,134132.000,A,0100.0000,N,00100.0000,E,0.00,000.00,030215,,,A*6D\r\n\r\nOK\r\n
[ 13:41:33.255 ] [27:INFO] cmd: ATS89?*47C6
[ 13:41:33.255 ] [27:INFO] res: \r\n00001\r\n\r\nOK\r\n
[ 13:41:33.255 ] [27:INFO] cmd: AT%GPS=30,2,"RMC","GGA"*D90A
[ 13:41:33.275 ] [27:INFO] res: \r\n%GPS: $GPGGA,134133.000,0100.0000,N,00100.0000,E,1,05,3.0,0.00,M,,,,0000*3E\r\n$GPRMC,134133.000,A,0100.0000,N,00100.0000,E,0.00,000.00,030215,,,A*6C\r\n\r\nOK\r\n
[ 13:41:34.265 ] [27:INFO] cmd: ATS89?*47C6
[ 13:41:34.265 ] [27:INFO] res: \r\n00001\r\n\r\nOK\r\n
[ 13:41:34.265 ] [27:INFO] cmd: AT%GPS=30,2,"RMC","GGA"*D90A
[ 13:41:34.265 ] [27:INFO] res: \r\n%GPS: $GPGGA,134134.000,0100.0000,N,00100.0000,E,1,05,3.0,0.00,M,,,,0000*39\r\n$GPRMC,134134.000,A,0100.0000,N,00100.0000,E,0.00,000.00,030215,,,A*6B\r\n\r\nOK\r\n
[ 13:41:35.285 ] [27:INFO] cmd: ATS89?*47C6
[ 13:41:35.285 ] [27:INFO] res: \r\n00001\r\n\r\nOK\r\n
[ 13:41:35.285 ] [27:INFO] cmd: AT%GPS=30,2,"RMC","GGA"*D90A
[ 13:41:35.285 ] [27:INFO] res: \r\n%GPS: $GPGGA,134135.000,0100.0000,N,00100.0000,E,1,05,3.0,0.00,M,,,,0000*38\r\n$GPRMC,134135.000,A,0100.0000,N,00100.0000,E,0.00,000.00,030215,,,A*6A\r\n\r\nOK\r\n
[ 13:41:36.295 ] [27:INFO] cmd: ATS89?*47C6
[ 13:41:36.295 ] [27:INFO] res: \r\n00001\r\n\r\nOK\r\n
[ 13:41:36.295 ] [27:INFO] cmd: AT%GPS=30,2,"RMC","GGA"*D90A
[ 13:41:36.295 ] [27:INFO] res: \r\n%GPS: $GPGGA,134136.000,0100.0000,N,00100.0000,E,1,05,3.0,0.00,M,,,,0000*3B\r\n$GPRMC,134136.000,A,0100.0000,N,00100.0000,E,0.00,000.00,030215,,,A*69\r\n\r\nOK\r\n
[ 13:41:37.305 ] [27:INFO] cmd: ATS89?*47C6
[ 13:41:37.305 ] [27:INFO] res: \r\n00001\r\n\r\nOK\r\n
[ 13:41:37.305 ] [27:INFO] cmd: AT%GPS=30,2,"RMC","GGA"*D90A
[ 13:41:37.305 ] [27:INFO] res: \r\n%GPS: $GPGGA,134137.000,0100.0000,N,00100.0000,E,1,05,3.0,0.00,M,,,,0000*3A\r\n$GPRMC,134137.000,A,0100.0000,N,00100.0000,E,0.00,000.00,030215,,,A*68\r\n\r\nOK\r\n
[ 13:41:38.325 ] [27:INFO] cmd: ATS89?*47C6
[ 13:41:38.325 ] [27:INFO] res: \r\n00001\r\n\r\nOK\r\n
[ 13:41:38.325 ] [27:INFO] cmd: AT%GPS=30,2,"RMC","GGA"*D90A
[ 13:41:38.325 ] [27:INFO] res: \r\n%GPS: $GPGGA,134138.000,0100.0000,N,00100.0000,E,1,05,3.0,0.00,M,,,,0000*35\r\n$GPRMC,134138.000,A,0100.0000,N,00100.0000,E,0.00,000.00,030215,,,A*67\r\n\r\nOK\r\n
[ 13:41:39.335 ] [27:INFO] cmd: ATS89?*47C6
[ 13:41:39.335 ] [27:INFO] res: \r\n00001\r\n\r\nOK\r\n
[ 13:41:39.335 ] [27:INFO] cmd: AT%GPS=30,2,"RMC","GGA"*D90A
[ 13:41:39.345 ] [27:INFO] res: \r\n%GPS: $GPGGA,134139.000,0100.0000,N,00100.0000,E,1,05,3.0,0.00,M,,,,0000*34\r\n$GPRMC,134139.000,A,0100.0000,N,00100.0000,E,0.00,000.00,030215,,,A*66\r\n\r\nOK\r\n
[ 13:41:40.355 ] [27:INFO] cmd: ATS89?*47C6
[ 13:41:40.355 ] [27:INFO] res: \r\n00001\r\n\r\nOK\r\n
[ 13:41:40.355 ] [27:INFO] cmd: AT%GPS=30,2,"RMC","GGA"*D90A
[ 13:41:40.355 ] [27:INFO] res: \r\n%GPS: $GPGGA,134140.000,0100.0000,N,00100.0000,E,1,05,3.0,0.00,M,,,,0000*3A\r\n$GPRMC,134140.000,A,0100.0000,N,00100.0000,E,0.00,000.00,030215,,,A*68\r\n\r\nOK\r\n
[ 13:41:41.365 ] [27:INFO] cmd: ATS89?*47C6
[ 13:41:41.365 ] [27:INFO] res: \r\n00001\r\n\r\nOK\r\n
[ 13:41:41.365 ] [27:INFO] cmd: AT%GPS=30,2,"RMC","GGA"*D90A
[ 13:41:41.365 ] [27:INFO] res: \r\n%GPS: $GPGGA,134141.000,0100.0000,N,00100.0000,E,1,05,3.0,0.00,M,,,,0000*3B\r\n$GPRMC,134141.000,A,0100.0000,N,00100.0000,E,0.00,000.00,030215,,,A*69\r\n\r\nOK\r\n
[ 13:41:42.375 ] [27:INFO] cmd: ATS89?*47C6
[ 13:41:42.375 ] [27:INFO] res: \r\n00001\r\n\r\nOK\r\n
[ 13:41:42.375 ] [27:INFO] cmd: AT%GPS=30,2,"RMC","GGA"*D90A
