[ 13:17:08.695 ] [27:INFO] cmd: AT%GPS=30,2,"RMC","GGA"*D90A
[ 13:17:08.695 ] [27:INFO] res: \r\n%GPS: $GPGGA,131708.000,0200.0000,N,00800.0000,E,1,05,3.0,0.00,M,,,,0000*3F\r\n$GPRMC,131708.000,A,0200.0000,N,00800.0000,E,0.00,000.00,140115,,,A*68\r\n\r\nOK\r\n
[ 13:17:09.715 ] [27:INFO] cmd: ATS89?*47C6
[ 13:17:09.715 ] [27:INFO] res: \r\n00001\r\n\r\nOK\r\n
[ 13:17:09.715 ] [27:INFO] cmd: AT%GPS=30,2,"RMC","GGA"*D90A
[ 13:17:09.715 ] [27:INFO] res: \r\n%GPS: $GPGGA,131709.000,0200.0000,N,00800.0000,E,1,05,3.0,0.00,M,,,,0000*3E\r\n$GPRMC,131709.000,A,0200.0000,N,00800.0000,E,0.00,000.00,140115,,,A*69\r\n\r\nOK\r\n
[ 13:17:10.725 ] [27:INFO] cmd: ATS89?*47C6
[ 13:17:10.725 ] [27:INFO] res: \r\n00001\r\n\r\nOK\r\n
[ 13:17:10.725 ] [27:INFO] cmd: AT%GPS=30,2,"RMC","GGA"*D90A
[ 13:17:10.725 ] [27:INFO] res: \r\n%GPS: $GPGGA,131710.000,0200.0000,N,00800.0000,E,1,05,3.0,0.00,M,,,,0000*36\r\n$GPRMC,131710.000,A,0200.0000,N,00800.0000,E,0.00,000.00,140115,,,A*61\r\n\r\nOK\r\n
[ 13:17:11.745 ] [27:INFO] cmd: ATS89?*47C6
[ 13:17:11.745 ] [27:INFO] res: \r\n00001\r\n\r\nOK\r\n
[ 13:17:11.745 ] [27:INFO] cmd: AT%GPS=30,2,"RMC","GGA"*D90A
[ 13:17:11.745 ] [27:INFO] res: \r\n%GPS: $GPGGA,131711.000,0200.0000,N,00800.0000,E,1,05,3.0,0.00,M,,,,0000*37\r\n$GPRMC,131711.000,A,0200.0000,N,00800.0000,E,0.00,000.00,140115,,,A*60\r\n\r\nOK\r\n
[ 13:17:12.445 ] [115:INFO] Event GpsBlocked state unchanged
[ 13:17:12.445 ] [27:INFO] cmd: AT%EVNT=3,1*BC22
[ 13:17:12.445 ] [27:INFO] res: \r\n%EVNT: 24,16777215,0,442934228,3,1,4,95656,0,0,0,0,0,0,0,0,0,0,0,0,0,0,0,0,0,0,257,0,0,0,0\r\n\r\nOK\r\n
[ 13:17:12.445 ] [115:INFO] Event IdpBlocked state unchanged
[ 13:17:12.755 ] [27:INFO] cmd: ATS89?*47C6
[ 13:17:12.755 ] [27:INFO] res: \r\n00001\r\n\r\nOK\r\n
[ 13:17:12.755 ] [27:INFO] cmd: AT%GPS=30,2,"RMC","GGA"*D90A
[ 13:17:12.755 ] [27:INFO] res: \r\n%GPS: $GPGGA,131712.000,0200.0000,N,00800.0000,E,1,05,3.0,0.00,M,,,,0000*34\r\n$GPRMC,131712.000,A,0200.0000,N,00800.0000,E,0.00,000.00,140115,,,A*63\r\n\r\nOK\r\n
[ 13:17:13.455 ] [115:INFO] Event 0 changed to true
[ 13:17:13.475 ] [18:INFO] queuing RL msg #592 (SIN=115, bits=156)
[ 13:17:13.475 ] [18:INFO] completed log msg #593 (SIN=115), status=Success
[ 13:17:13.475 ] [18:INFO] sending RL msg #592 trn #1 (SIN=115, bits=156)
[ 13:17:13.475 ] [27:INFO] cmd: AT%MGRT="00000250",3,115,3,Mqls2LADqYAHUwAAWkeUAAA
[ 13:17:13.475 ] [27:INFO] res: \r\nOK\r\n
[ 13:17:13.765 ] [27:INFO] cmd: ATS89?*47C6
[ 13:17:13.765 ] [27:INFO] res: \r\n00001\r\n\r\nOK\r\n
[ 13:17:13.775 ] [27:INFO] cmd: AT%GPS=30,2,"RMC","GGA"*D90A
[ 13:17:13.775 ] [27:INFO] res: \r\n%GPS: $GPGGA,131713.000,0200.0000,N,00800.0000,E,1,05,3.0,0.00,M,,,,0000*35\r\n$GPRMC,131713.000,A,0200.0000,N,00800.0000,E,0.00,000.00,140115,,,A*62\r\n\r\nOK\r\n
[ 13:17:14.785 ] [27:INFO] cmd: ATS89?*47C6
[ 13:17:14.785 ] [27:INFO] res: \r\n00001\r\n\r\nOK\r\n
[ 13:17:14.785 ] [27:INFO] cmd: AT%GPS=30,2,"RMC","GGA"*D90A
[ 13:17:14.785 ] [27:INFO] res: \r\n%GPS: $GPGGA,131714.000,0200.0000,N,00800.0000,E,1,05,3.0,0.00,M,,,,0000*32\r\n$GPRMC,131714.000,A,0200.0000,N,00800.0000,E,0.00,000.00,140115,,,A*65\r\n\r\nOK\r\n
[ 13:17:15.795 ] [27:INFO] cmd: ATS89?*47C6
[ 13:17:15.795 ] [27:INFO] res: \r\n00001\r\n\r\nOK\r\n
[ 13:17:15.795 ] [27:INFO] cmd: AT%GPS=30,2,"RMC","GGA"*D90A
[ 13:17:15.795 ] [27:INFO] res: \r\n%GPS: $GPGGA,131715.000,0200.0000,N,00800.0000,E,1,05,3.0,0.00,M,,,,0000*33\r\n$GPRMC,131715.000,A,0200.0000,N,00800.0000,E,0.00,000.00,140115,,,A*64\r\n\r\nOK\r\n
[ 13:17:16.815 ] [27:INFO] cmd: ATS89?*47C6
[ 13:17:16.815 ] [27:INFO] res: \r\n00001\r\n\r\nOK\r\n
[ 13:17:16.815 ] [27:INFO] cmd: AT%GPS=30,2,"RMC","GGA"*D90A
[ 13:17:16.825 ] [27:INFO] res: \r\n%GPS: $GPGGA,131716.000,0200.0000,N,00800.0000,E,1,05,3.0,0.00,M,,,,0000*30\r\n$GPRMC,131716.000,A,0200.0000,N,00800.0000,E,0.00,000.00,140115,,,A*67\r\n\r\nOK\r\n
[ 13:17:17.825 ] [27:INFO] cmd: ATS89?*47C6
[ 13:17:17.825 ] [27:INFO] res: \r\n00001\r\n\r\nOK\r\n
[ 13:17:17.825 ] [27:INFO] cmd: AT%GPS=30,2,"RMC","GGA"*D90A
[ 13:17:17.835 ] [27:INFO] res: \r\n%GPS: $GPGGA,131717.000,0200.0000,N,00800.0000,E,1,05,3.0,0.00,M,,,,0000*31\r\n$GPRMC,131717.000,A,0200.0000,N,00800.0000,E,0.00,000.00,140115,,,A*66\r\n\r\nOK\r\n
[ 13:17:18.835 ] [27:INFO] cmd: ATS89?*47C6
[ 13:17:18.835 ] [27:INFO] res: \r\n00005\r\n\r\nOK\r\n
[ 13:17:18.835 ] [27:INFO] cmd: AT%GPS=30,2,"RMC","GGA"*D90A
[ 13:17:18.835 ] [27:INFO] res: \r\n%GPS: $GPGGA,131718.000,0200.0000,N,00800.0000,E,1,05,3.0,0.00,M,,,,0000*3E\r\n$GPRMC,131718.000,A,0200.0000,N,00800.0000,E,0.00,000.00,140115,,,A*69\r\n\r\nOK\r\n
[ 13:17:18.835 ] [27:INFO] cmd: AT%MGRS*04F9
[ 13:17:18.855 ] [27:INFO] res: \r\n%MGRS: "00000250",309.1,3,115,6,20,20\r\n\r\nOK\r\n
[ 13:17:18.855 ] [18:INFO] completed RL msg #592 (SIN=115), status=Success
[ 13:17:18.855 ] [115:INFO] LED 1 is set to  3
[ 13:17:19.855 ] [27:INFO] cmd: ATS89?*47C6
[ 13:17:19.855 ] [27:INFO] res: \r\n00001\r\n\r\nOK\r\n
[ 13:17:19.855 ] [27:INFO] cmd: AT%GPS=30,2,"RMC","GGA"*D90A
[ 13:17:19.855 ] [27:INFO] res: \r\n%GPS: $GPGGA,131719.000,0200.0000,N,00800.0000,E,1,05,3.0,0.00,M,,,,0000*3F\r\n$GPRMC,131719.000,A,0200.0000,N,00800.0000,E,0.00,000.00,140115,,,A*68\r\n\r\nOK\r\n
[ 13:17:20.865 ] [27:INFO] cmd: ATS89?*47C6
[ 13:17:20.865 ] [27:INFO] res: \r\n00001\r\n\r\nOK\r\n
[ 13:17:20.865 ] [27:INFO] cmd: AT%GPS=30,2,"RMC","GGA"*D90A
[ 13:17:20.865 ] [27:INFO] res: \r\n%GPS: $GPGGA,131720.000,0200.0000,N,00800.0000,E,1,05,3.0,0.00,M,,,,0000*35\r\n$GPRMC,131720.000,A,0200.0000,N,00800.0000,E,0.00,000.00,140115,,,A*62\r\n\r\nOK\r\n
[ 13:17:20.985 ] [18:INFO] queuing RL msg #594 (SIN=115, bits=152)
[ 13:17:20.995 ] [115:INFO] LED 1 is set to  1
[ 13:17:20.995 ] [18:INFO] completed log msg #595 (SIN=115), status=Success
[ 13:17:20.995 ] [115:INFO] Next Report: Standard in 60 seconds
[ 13:17:20.995 ] [18:INFO] sending RL msg #594 trn #1 (SIN=115, bits=152)
[ 13:17:20.995 ] [27:INFO] cmd: AT%MGRT="00000252",3,115,3,FKls2MADqYAHUwAAWkeUAAA
[ 13:17:20.995 ] [27:INFO] res: \r\nOK\r\n
[ 13:17:21.885 ] [27:INFO] cmd: ATS89?*47C6
[ 13:17:21.885 ] [27:INFO] res: \r\n00001\r\n\r\nOK\r\n
[ 13:17:21.885 ] [27:INFO] cmd: AT%GPS=30,2,"RMC","GGA"*D90A
[ 13:17:21.885 ] [27:INFO] res: \r\n%GPS: $GPGGA,131721.000,0200.0000,N,00800.0000,E,1,05,3.0,0.00,M,,,,0000*34\r\n$GPRMC,131721.000,A,0200.0000,N,00800.0000,E,0.00,000.00,140115,,,A*63\r\n\r\nOK\r\n
[ 13:17:22.895 ] [27:INFO] cmd: ATS89?*47C6
[ 13:17:22.895 ] [27:INFO] res: \r\n00001\r\n\r\nOK\r\n
[ 13:17:22.895 ] [27:INFO] cmd: AT%GPS=30,2,"RMC","GGA"*D90A
[ 13:17:22.905 ] [27:INFO] res: \r\n%GPS: $GPGGA,131722.000,0200.0000,N,00800.0000,E,1,05,3.0,0.00,M,,,,0000*37\r\n$GPRMC,131722.000,A,0200.0000,N,00800.0000,E,0.00,000.00,140115,,,A*60\r\n\r\nOK\r\n
[ 13:17:23.915 ] [27:INFO] cmd: ATS89?*47C6
[ 13:17:23.915 ] [27:INFO] res: \r\n00001\r\n\r\nOK\r\n
[ 13:17:23.915 ] [27:INFO] cmd: AT%GPS=30,2,"RMC","GGA"*D90A
[ 13:17:23.925 ] [27:INFO] res: \r\n%GPS: $GPGGA,131723.000,0200.0000,N,00800.0000,E,1,05,3.0,0.00,M,,,,0000*36\r\n$GPRMC,131723.000,A,0200.0000,N,00800.0000,E,0.00,000.00,140115,,,A*61\r\n\r\nOK\r\n
[ 13:17:24.925 ] [27:INFO] cmd: ATS89?*47C6
[ 13:17:24.925 ] [27:INFO] res: \r\n00001\r\n\r\nOK\r\n
[ 13:17:24.925 ] [27:INFO] cmd: AT%GPS=30,2,"RMC","GGA"*D90A
[ 13:17:24.925 ] [27:INFO] res: \r\n%GPS: $GPGGA,131724.000,0200.0000,N,00800.0000,E,1,05,3.0,0.00,M,,,,0000*31\r\n$GPRMC,131724.000,A,0200.0000,N,00800.0000,E,0.00,000.00,140115,,,A*66\r\n\r\nOK\r\n
[ 13:17:25.935 ] [27:INFO] cmd: ATS89?*47C6
[ 13:17:25.935 ] [27:INFO] res: \r\n00001\r\n\r\nOK\r\n
[ 13:17:25.935 ] [27:INFO] cmd: AT%GPS=30,2,"RMC","GGA"*D90A
[ 13:17:25.935 ] [27:INFO] res: \r\n%GPS: $GPGGA,131725.000,0200.0000,N,00800.0000,E,1,05,3.0,0.00,M,,,,0000*30\r\n$GPRMC,131725.000,A,0200.0000,N,00800.0000,E,0.00,000.00,140115,,,A*67\r\n\r\nOK\r\n
[ 13:17:26.955 ] [27:INFO] cmd: ATS89?*47C6
[ 13:17:26.955 ] [27:INFO] res: \r\n00005\r\n\r\nOK\r\n
[ 13:17:26.955 ] [27:INFO] cmd: AT%GPS=30,2,"RMC","GGA"*D90A
[ 13:17:26.955 ] [27:INFO] res: \r\n%GPS: $GPGGA,131726.000,0200.0000,N,00800.0000,E,1,05,3.0,0.00,M,,,,0000*33\r\n$GPRMC,131726.000,A,0200.0000,N,00800.0000,E,0.00,000.00,140115,,,A*64\r\n\r\nOK\r\n
[ 13:17:26.955 ] [27:INFO] cmd: AT%MGRS*04F9
[ 13:17:26.975 ] [27:INFO] res: \r\n%MGRS: "00000252",310.1,3,115,6,19,19\r\n\r\nOK\r\n
[ 13:17:26.975 ] [18:INFO] completed RL msg #594 (SIN=115), status=Success
[ 13:17:27.965 ] [27:INFO] cmd: ATS89?*47C6
[ 13:17:27.965 ] [27:INFO] res: \r\n00001\r\n\r\nOK\r\n
[ 13:17:27.965 ] [27:INFO] cmd: AT%GPS=30,2,"RMC","GGA"*D90A
[ 13:17:27.965 ] [27:INFO] res: \r\n%GPS: $GPGGA,131727.000,0200.0000,N,00800.0000,E,1,05,3.0,0.00,M,,,,0000*32\r\n$GPRMC,131727.000,A,0200.0000,N,00800.0000,E,0.00,000.00,140115,,,A*65\r\n\r\nOK\r\n
[ 13:17:28.975 ] [27:INFO] cmd: ATS89?*47C6
[ 13:17:28.975 ] [27:INFO] res: \r\n00001\r\n\r\nOK\r\n
[ 13:17:28.975 ] [27:INFO] cmd: AT%GPS=30,2,"RMC","GGA"*D90A
[ 13:17:28.985 ] [27:INFO] res: \r\n%GPS: $GPGGA,131728.000,0200.0000,N,00800.0000,E,1,05,3.0,0.00,M,,,,0000*3D\r\n$GPRMC,131728.000,A,0200.0000,N,00800.0000,E,0.00,000.00,140115,,,A*6A\r\n\r\nOK\r\n
[ 13:17:29.495 ] [27:INFO] cmd: ATS89?*47C6
[ 13:17:29.495 ] [27:INFO] res: \r\n00032\r\n\r\nOK\r\n
[ 13:17:29.495 ] [27:INFO] cmd: ATS56?*15A9
[ 13:17:29.495 ] [27:INFO] res: \r\n001\r\n\r\nOK\r\n
[ 13:17:29.495 ] [27:INFO] cmd: ATS57?*2698
[ 13:17:29.495 ] [27:INFO] res: \r\n000\r\n\r\nOK\r\n
[ 13:17:29.495 ] [115:INFO] Event 0 debounce state false
[ 13:17:29.995 ] [27:INFO] cmd: ATS89?*47C6
[ 13:17:29.995 ] [27:INFO] res: \r\n00001\r\n\r\nOK\r\n
[ 13:17:29.995 ] [27:INFO] cmd: AT%GPS=30,2,"RMC","GGA"*D90A
[ 13:17:29.995 ] [27:INFO] res: \r\n%GPS: $GPGGA,131729.000,0100.0000,N,00100.0000,E,1,05,3.0,0.00,M,,,,0000*36\r\n$GPRMC,131729.000,A,0100.0000,N,00100.0000,E,0.00,000.00,140115,,,A*61\r\n\r\nOK\r\n
[ 13:17:30.495 ] [115:INFO] Event 0 changed to false
[ 13:17:30.515 ] [18:INFO] queuing RL msg #596 (SIN=115, bits=156)
[ 13:17:30.525 ] [18:INFO] completed log msg #597 (SIN=115), status=Success
[ 13:17:30.525 ] [18:INFO] sending RL msg #596 trn #1 (SIN=115, bits=156)
[ 13:17:30.525 ] [27:INFO] cmd: AT%MGRT="00000254",3,115,3,Mqls2NIB1MAA6mAAWkeUAAA
[ 13:17:30.535 ] [27:INFO] res: \r\nOK\r\n
[ 13:17:30.935 ] [115:INFO] LED 1 is set to  3
[ 13:17:31.005 ] [27:INFO] cmd: ATS89?*47C6
[ 13:17:31.005 ] [27:INFO] res: \r\n00001\r\n\r\nOK\r\n
[ 13:17:31.005 ] [27:INFO] cmd: AT%GPS=30,2,"RMC","GGA"*D90A
[ 13:17:31.005 ] [27:INFO] res: \r\n%GPS: $GPGGA,131731.000,0100.0000,N,00100.0000,E,1,05,3.0,0.00,M,,,,0000*3F\r\n$GPRMC,131731.000,A,0100.0000,N,00100.0000,E,0.00,000.00,140115,,,A*68\r\n\r\nOK\r\n
[ 13:17:31.505 ] [27:INFO] cmd: ATS89?*47C6
[ 13:17:31.505 ] [27:INFO] res: \r\n00002\r\n\r\nOK\r\n
[ 13:17:31.505 ] [27:INFO] cmd: AT%MGFN*08D2
[ 13:17:31.505 ] [27:INFO] res: \r\n%MGFN: "FM94.01",94.01,0,16,2,8,8\r\n\r\nOK\r\n
[ 13:17:31.505 ] [27:INFO] cmd: AT%MGFG="FM94.01",3*E284
[ 13:17:31.505 ] [27:INFO] res: \r\n%MGFG: "FM94.01",94.01,0,16,2,7,3,CQFzAWRACA==\r\n\r\nOK\r\n
[ 13:17:31.505 ] [18:INFO] sending decoded message from transport=1 to SIN=16
[ 13:17:32.025 ] [27:INFO] cmd: ATS89?*47C6
[ 13:17:32.025 ] [27:INFO] res: \r\n00001\r\n\r\nOK\r\n
[ 13:17:32.025 ] [27:INFO] cmd: AT%GPS=30,2,"RMC","GGA"*D90A
[ 13:17:32.025 ] [27:INFO] res: \r\n%GPS: $GPGGA,131732.000,0000.0000,N,00000.0000,E,1,05,3.0,0.00,M,,,,0000*3C\r\n$GPRMC,131732.000,A,0000.0000,N,00000.0000,E,0.00,000.00,140115,,,A*6B\r\n\r\nOK\r\n
[ 13:17:33.035 ] [27:INFO] cmd: ATS89?*47C6
[ 13:17:33.035 ] [27:INFO] res: \r\n00001\r\n\r\nOK\r\n
[ 13:17:33.035 ] [27:INFO] cmd: AT%GPS=30,2,"RMC","GGA"*D90A
[ 13:17:33.035 ] [27:INFO] res: \r\n%GPS: $GPGGA,131733.000,0000.0000,N,00000.0000,E,1,05,3.0,0.00,M,,,,0000*3D\r\n$GPRMC,131733.000,A,0000.0000,N,00000.0000,E,0.00,000.00,140115,,,A*6A\r\n\r\nOK\r\n
[ 13:17:34.045 ] [27:INFO] cmd: ATS89?*47C6
[ 13:17:34.045 ] [27:INFO] res: \r\n00001\r\n\r\nOK\r\n
[ 13:17:34.045 ] [27:INFO] cmd: AT%GPS=30,2,"RMC","GGA"*D90A
[ 13:17:34.055 ] [27:INFO] res: \r\n%GPS: $GPGGA,131734.000,0000.0000,N,00000.0000,E,1,05,3.0,0.00,M,,,,0000*3A\r\n$GPRMC,131734.000,A,0000.0000,N,00000.0000,E,0.00,000.00,140115,,,A*6D\r\n\r\nOK\r\n
[ 13:17:35.065 ] [27:INFO] cmd: ATS89?*47C6
[ 13:17:35.065 ] [27:INFO] res: \r\n00001\r\n\r\nOK\r\n
[ 13:17:35.065 ] [27:INFO] cmd: AT%GPS=30,2,"RMC","GGA"*D90A
[ 13:17:35.065 ] [27:INFO] res: \r\n%GPS: $GPGGA,131735.000,0000.0000,N,00000.0000,E,1,05,3.0,0.00,M,,,,0000*3B\r\n$GPRMC,131735.000,A,0000.0000,N,00000.0000,E,0.00,000.00,140115,,,A*6C\r\n\r\nOK\r\n
[ 13:17:36.085 ] [27:INFO] cmd: ATS89?*47C6
[ 13:17:36.085 ] [27:INFO] res: \r\n00005\r\n\r\nOK\r\n
[ 13:17:36.085 ] [27:INFO] cmd: AT%GPS=30,2,"RMC","GGA"*D90A
[ 13:17:36.095 ] [27:INFO] res: \r\n%GPS: $GPGGA,131736.000,0000.0000,N,00000.0000,E,1,05,3.0,0.00,M,,,,0000*38\r\n$GPRMC,131736.000,A,0000.0000,N,00000.0000,E,0.00,000.00,140115,,,A*6F\r\n\r\nOK\r\n
[ 13:17:36.095 ] [27:INFO] cmd: AT%MGRS*04F9
[ 13:17:36.095 ] [27:INFO] res: \r\n%MGRS: "00000254",311.1,3,115,6,20,20\r\n\r\nOK\r\n
[ 13:17:36.095 ] [18:INFO] completed RL msg #596 (SIN=115), status=Success
[ 13:17:36.095 ] [115:INFO] LED 1 is set to  3
[ 13:17:37.095 ] [27:INFO] cmd: ATS89?*47C6
[ 13:17:37.095 ] [27:INFO] res: \r\n00001\r\n\r\nOK\r\n
[ 13:17:37.095 ] [27:INFO] cmd: AT%GPS=30,2,"RMC","GGA"*D90A
[ 13:17:37.105 ] [27:INFO] res: \r\n%GPS: $GPGGA,131737.000,0000.0000,N,00000.0000,E,1,05,3.0,0.00,M,,,,0000*39\r\n$GPRMC,131737.000,A,0000.0000,N,00000.0000,E,0.00,000.00,140115,,,A*6E\r\n\r\nOK\r\n
[ 13:17:38.105 ] [27:INFO] cmd: ATS89?*47C6
[ 13:17:38.105 ] [27:INFO] res: \r\n00001\r\n\r\nOK\r\n
[ 13:17:38.105 ] [27:INFO] cmd: AT%GPS=30,2,"RMC","GGA"*D90A
[ 13:17:38.105 ] [27:INFO] res: \r\n%GPS: $GPGGA,131738.000,0000.0000,N,00000.0000,E,1,05,3.0,0.00,M,,,,0000*36\r\n$GPRMC,131738.000,A,0000.0000,N,00000.0000,E,0.00,000.00,140115,,,A*61\r\n\r\nOK\r\n
[ 13:17:39.115 ] [27:INFO] cmd: ATS89?*47C6
[ 13:17:39.115 ] [27:INFO] res: \r\n00001\r\n\r\nOK\r\n
[ 13:17:39.115 ] [27:INFO] cmd: AT%GPS=30,2,"RMC","GGA"*D90A
[ 13:17:39.115 ] [27:INFO] res: \r\n%GPS: $GPGGA,131739.000,0000.0000,N,00000.0000,E,1,05,3.0,0.00,M,,,,0000*37\r\n$GPRMC,131739.000,A,0000.0000,N,00000.0000,E,0.00,000.00,140115,,,A*60\r\n\r\nOK\r\n
[ 13:17:40.135 ] [27:INFO] cmd: ATS89?*47C6
[ 13:17:40.135 ] [27:INFO] res: \r\n00001\r\n\r\nOK\r\n
[ 13:17:40.135 ] [27:INFO] cmd: AT%GPS=30,2,"RMC","GGA"*D90A
[ 13:17:40.135 ] [27:INFO] res: \r\n%GPS: $GPGGA,131740.000,0000.0000,N,00000.0000,E,1,05,3.0,0.00,M,,,,0000*39\r\n$GPRMC,131740.000,A,0000.0000,N,00000.0000,E,0.00,000.00,140115,,,A*6E\r\n\r\nOK\r\n
[ 13:17:41.145 ] [27:INFO] cmd: ATS89?*47C6
[ 13:17:41.145 ] [27:INFO] res: \r\n00001\r\n\r\nOK\r\n
[ 13:17:41.145 ] [27:INFO] cmd: AT%GPS=30,2,"RMC","GGA"*D90A
[ 13:17:41.155 ] [27:INFO] res: \r\n%GPS: $GPGGA,131741.000,0000.0000,N,00000.0000,E,1,05,3.0,0.00,M,,,,0000*38\r\n$GPRMC,131741.000,A,0000.0000,N,00000.0000,E,0.00,000.00,140115,,,A*6F\r\n\r\nOK\r\n
[ 13:17:42.165 ] [27:INFO] cmd: ATS89?*47C6
[ 13:17:42.165 ] [27:INFO] res: \r\n00001\r\n\r\nOK\r\n
[ 13:17:42.165 ] [27:INFO] cmd: AT%GPS=30,2,"RMC","GGA"*D90A
[ 13:17:42.165 ] [27:INFO] res: \r\n%GPS: $GPGGA,131742.000,0000.0000,N,00000.0000,E,1,05,3.0,0.00,M,,,,0000*3B\r\n$GPRMC,131742.000,A,0000.0000,N,00000.0000,E,0.00,000.00,140115,,,A*6C\r\n\r\nOK\r\n
[ 13:17:43.175 ] [27:INFO] cmd: ATS89?*47C6
[ 13:17:43.175 ] [27:INFO] res: \r\n00001\r\n\r\nOK\r\n
[ 13:17:43.175 ] [27:INFO] cmd: AT%GPS=30,2,"RMC","GGA"*D90A
[ 13:17:43.175 ] [27:INFO] res: \r\n%GPS: $GPGGA,131743.000,0000.0000,N,00000.0000,E,1,05,3.0,0.00,M,,,,0000*3A\r\n$GPRMC,131743.000,A,0000.0000,N,00000.0000,E,0.00,000.00,140115,,,A*6D\r\n\r\nOK\r\n
[ 13:17:44.185 ] [27:INFO] cmd: ATS89?*47C6
[ 13:17:44.185 ] [27:INFO] res: \r\n00001\r\n\r\nOK\r\n
[ 13:17:44.185 ] [27:INFO] cmd: AT%GPS=30,2,"RMC","GGA"*D90A
[ 13:17:44.185 ] [27:INFO] res: \r\n%GPS: $GPGGA,131744.000,0000.0000,N,00000.0000,E,1,05,3.0,0.00,M,,,,0000*3D\r\n$GPRMC,131744.000,A,0000.0000,N,00000.0000,E,0.00,000.00,140115,,,A*6A\r\n\r\nOK\r\n
[ 13:17:45.205 ] [27:INFO] cmd: ATS89?*47C6
[ 13:17:45.205 ] [27:INFO] res: \r\n00001\r\n\r\nOK\r\n
[ 13:17:45.205 ] [27:INFO] cmd: AT%GPS=30,2,"RMC","GGA"*D90A
[ 13:17:45.205 ] [27:INFO] res: \r\n%GPS: $GPGGA,131745.000,0000.0000,N,00000.0000,E,1,05,3.0,0.00,M,,,,0000*3C\r\n$GPRMC,131745.000,A,0000.0000,N,00000.0000,E,0.00,000.00,140115,,,A*6B\r\n\r\nOK\r\n
[ 13:17:46.215 ] [27:INFO] cmd: ATS89?*47C6
[ 13:17:46.215 ] [27:INFO] res: \r\n00001\r\n\r\nOK\r\n
[ 13:17:46.215 ] [27:INFO] cmd: AT%GPS=30,2,"RMC","GGA"*D90A
[ 13:17:46.215 ] [27:INFO] res: \r\n%GPS: $GPGGA,131746.000,0000.0000,N,00000.0000,E,1,05,3.0,0.00,M,,,,0000*3F\r\n$GPRMC,131746.000,A,0000.0000,N,00000.0000,E,0.00,000.00,140115,,,A*68\r\n\r\nOK\r\n
[ 13:17:47.235 ] [27:INFO] cmd: ATS89?*47C6
[ 13:17:47.235 ] [27:INFO] res: \r\n00001\r\n\r\nOK\r\n
[ 13:17:47.235 ] [27:INFO] cmd: AT%GPS=30,2,"RMC","GGA"*D90A
[ 13:17:47.245 ] [27:INFO] res: \r\n%GPS: $GPGGA,131747.000,0000.0000,N,00000.0000,E,1,05,3.0,0.00,M,,,,0000*3E\r\n$GPRMC,131747.000,A,0000.0000,N,00000.0000,E,0.00,000.00,140115,,,A*69\r\n\r\nOK\r\n
[ 13:17:48.245 ] [27:INFO] cmd: ATS89?*47C6
[ 13:17:48.245 ] [27:INFO] res: \r\n00001\r\n\r\nOK\r\n
[ 13:17:48.245 ] [27:INFO] cmd: AT%GPS=30,2,"RMC","GGA"*D90A
[ 13:17:48.245 ] [27:INFO] res: \r\n%GPS: $GPGGA,131748.000,0000.0000,N,00000.0000,E,1,05,3.0,0.00,M,,,,0000*31\r\n$GPRMC,131748.000,A,0000.0000,N,00000.0000,E,0.00,000.00,140115,,,A*66\r\n\r\nOK\r\n
[ 13:17:49.255 ] [27:INFO] cmd: ATS89?*47C6
[ 13:17:49.255 ] [27:INFO] res: \r\n00001\r\n\r\nOK\r\n
[ 13:17:49.255 ] [27:INFO] cmd: AT%GPS=30,2,"RMC","GGA"*D90A
[ 13:17:49.255 ] [27:INFO] res: \r\n%GPS: $GPGGA,131749.000,0000.0000,N,00000.0000,E,1,05,3.0,0.00,M,,,,0000*30\r\n$GPRMC,131749.000,A,0000.0000,N,00000.0000,E,0.00,000.00,140115,,,A*67\r\n\r\nOK\r\n
[ 13:17:50.275 ] [27:INFO] cmd: ATS89?*47C6
[ 13:17:50.275 ] [27:INFO] res: \r\n00001\r\n\r\nOK\r\n
[ 13:17:50.275 ] [27:INFO] cmd: AT%GPS=30,2,"RMC","GGA"*D90A
[ 13:17:50.275 ] [27:INFO] res: \r\n%GPS: $GPGGA,131750.000,0000.0000,N,00000.0000,E,1,05,3.0,0.00,M,,,,0000*38\r\n$GPRMC,131750.000,A,0000.0000,N,00000.0000,E,0.00,000.00,140115,,,A*6F\r\n\r\nOK\r\n
[ 13:17:51.285 ] [27:INFO] cmd: ATS89?*47C6
[ 13:17:51.285 ] [27:INFO] res: \r\n00001\r\n\r\nOK\r\n
[ 13:17:51.285 ] [27:INFO] cmd: AT%GPS=30,2,"RMC","GGA"*D90A
[ 13:17:51.285 ] [27:INFO] res: \r\n%GPS: $GPGGA,131751.000,0000.0000,N,00000.0000,E,1,05,3.0,0.00,M,,,,0000*39\r\n$GPRMC,131751.000,A,0000.0000,N,00000.0000,E,0.00,000.00,140115,,,A*6E\r\n\r\nOK\r\n
[ 13:17:52.305 ] [27:INFO] cmd: ATS89?*47C6
[ 13:17:52.305 ] [27:INFO] res: \r\n00001\r\n\r\nOK\r\n
[ 13:17:52.305 ] [27:INFO] cmd: AT%GPS=30,2,"RMC","GGA"*D90A
[ 13:17:52.315 ] [27:INFO] res: \r\n%GPS: $GPGGA,131752.000,0000.0000,N,00000.0000,E,1,05,3.0,0.00,M,,,,0000*3A\r\n$GPRMC,131752.000,A,0000.0000,N,00000.0000,E,0.00,000.00,140115,,,A*6D\r\n\r\nOK\r\n
[ 13:17:53.315 ] [27:INFO] cmd: ATS89?*47C6
[ 13:17:53.315 ] [27:INFO] res: \r\n00001\r\n\r\nOK\r\n
[ 13:17:53.315 ] [27:INFO] cmd: AT%GPS=30,2,"RMC","GGA"*D90A
[ 13:17:53.325 ] [27:INFO] res: \r\n%GPS: $GPGGA,131753.000,0000.0000,N,00000.0000,E,1,05,3.0,0.00,M,,,,0000*3B\r\n$GPRMC,131753.000,A,0000.0000,N,00000.0000,E,0.00,000.00,140115,,,A*6C\r\n\r\nOK\r\n
[ 13:17:54.325 ] [27:INFO] cmd: ATS89?*47C6
[ 13:17:54.325 ] [27:INFO] res: \r\n00001\r\n\r\nOK\r\n
[ 13:17:54.335 ] [27:INFO] cmd: AT%GPS=30,2,"RMC","GGA"*D90A
[ 13:17:54.335 ] [27:INFO] res: \r\n%GPS: $GPGGA,131754.000,0000.0000,N,00000.0000,E,1,05,3.0,0.00,M,,,,0000*3C\r\n$GPRMC,131754.000,A,0000.0000,N,00000.0000,E,0.00,000.00,140115,,,A*6B\r\n\r\nOK\r\n
[ 13:17:55.345 ] [27:INFO] cmd: ATS89?*47C6
[ 13:17:55.345 ] [27:INFO] res: \r\n00001\r\n\r\nOK\r\n
[ 13:17:55.345 ] [27:INFO] cmd: AT%GPS=30,2,"RMC","GGA"*D90A
[ 13:17:55.345 ] [27:INFO] res: \r\n%GPS: $GPGGA,131755.000,0000.0000,N,00000.0000,E,1,05,3.0,0.00,M,,,,0000*3D\r\n$GPRMC,131755.000,A,0000.0000,N,00000.0000,E,0.00,000.00,140115,,,A*6A\r\n\r\nOK\r\n
[ 13:17:56.355 ] [27:INFO] cmd: ATS89?*47C6
[ 13:17:56.355 ] [27:INFO] res: \r\n00001\r\n\r\nOK\r\n
[ 13:17:56.355 ] [27:INFO] cmd: AT%GPS=30,2,"RMC","GGA"*D90A
[ 13:17:56.355 ] [27:INFO] res: \r\n%GPS: $GPGGA,131756.000,0000.0000,N,00000.0000,E,1,05,3.0,0.00,M,,,,0000*3E\r\n$GPRMC,131756.000,A,0000.0000,N,00000.0000,E,0.00,000.00,140115,,,A*69\r\n\r\nOK\r\n
[ 13:17:57.375 ] [27:INFO] cmd: ATS89?*47C6
[ 13:17:57.375 ] [27:INFO] res: \r\n00001\r\n\r\nOK\r\n
[ 13:17:57.375 ] [27:INFO] cmd: AT%GPS=30,2,"RMC","GGA"*D90A
[ 13:17:57.375 ] [27:INFO] res: \r\n%GPS: $GPGGA,131757.000,0000.0000,N,00000.0000,E,1,05,3.0,0.00,M,,,,0000*3F\r\n$GPRMC,131757.000,A,0000.0000,N,00000.0000,E,0.00,000.00,140115,,,A*68\r\n\r\nOK\r\n
[ 13:17:58.385 ] [27:INFO] cmd: ATS89?*47C6
[ 13:17:58.385 ] [27:INFO] res: \r\n00001\r\n\r\nOK\r\n
[ 13:17:58.385 ] [27:INFO] cmd: AT%GPS=30,2,"RMC","GGA"*D90A
[ 13:17:58.395 ] [27:INFO] res: \r\n%GPS: $GPGGA,131758.000,0000.0000,N,00000.0000,E,1,05,3.0,0.00,M,,,,0000*30\r\n$GPRMC,131758.000,A,0000.0000,N,00000.0000,E,0.00,000.00,140115,,,A*67\r\n\r\nOK\r\n
[ 13:17:59.395 ] [27:INFO] cmd: ATS89?*47C6
[ 13:17:59.395 ] [27:INFO] res: \r\n00001\r\n\r\nOK\r\n
[ 13:17:59.395 ] [27:INFO] cmd: AT%GPS=30,2,"RMC","GGA"*D90A
[ 13:17:59.395 ] [27:INFO] res: \r\n%GPS: $GPGGA,131759.000,0000.0000,N,00000.0000,E,1,05,3.0,0.00,M,,,,0000*31\r\n$GPRMC,131759.000,A,0000.0000,N,00000.0000,E,0.00,000.00,140115,,,A*66\r\n\r\nOK\r\n
[ 13:18:00.415 ] [27:INFO] cmd: ATS89?*47C6
[ 13:18:00.415 ] [27:INFO] res: \r\n00001\r\n\r\nOK\r\n
[ 13:18:00.415 ] [27:INFO] cmd: AT%GPS=30,2,"RMC","GGA"*D90A
[ 13:18:00.415 ] [27:INFO] res: \r\n%GPS: $GPGGA,131800.000,0000.0000,N,00000.0000,E,1,05,3.0,0.00,M,,,,0000*32\r\n$GPRMC,131800.000,A,0000.0000,N,00000.0000,E,0.00,000.00,140115,,,A*65\r\n\r\nOK\r\n
[ 13:18:01.435 ] [27:INFO] cmd: ATS89?*47C6
[ 13:18:01.435 ] [27:INFO] res: \r\n00001\r\n\r\nOK\r\n
[ 13:18:01.435 ] [27:INFO] cmd: AT%GPS=30,2,"RMC","GGA"*D90A
[ 13:18:01.435 ] [27:INFO] res: \r\n%GPS: $GPGGA,131801.000,0000.0000,N,00000.0000,E,1,05,3.0,0.00,M,,,,0000*33\r\n$GPRMC,131801.000,A,0000.0000,N,00000.0000,E,0.00,000.00,140115,,,A*64\r\n\r\nOK\r\n
[ 13:18:02.445 ] [27:INFO] cmd: ATS89?*47C6
[ 13:18:02.445 ] [27:INFO] res: \r\n00001\r\n\r\nOK\r\n
[ 13:18:02.445 ] [27:INFO] cmd: AT%GPS=30,2,"RMC","GGA"*D90A
[ 13:18:02.445 ] [27:INFO] res: \r\n%GPS: $GPGGA,131802.000,0000.0000,N,00000.0000,E,1,05,3.0,0.00,M,,,,0000*30\r\n$GPRMC,131802.000,A,0000.0000,N,00000.0000,E,0.00,000.00,140115,,,A*67\r\n\r\nOK\r\n
[ 13:18:03.455 ] [27:INFO] cmd: ATS89?*47C6
[ 13:18:03.455 ] [27:INFO] res: \r\n00001\r\n\r\nOK\r\n
[ 13:18:03.455 ] [27:INFO] cmd: AT%GPS=30,2,"RMC","GGA"*D90A
[ 13:18:03.455 ] [27:INFO] res: \r\n%GPS: $GPGGA,131803.000,0000.0000,N,00000.0000,E,1,05,3.0,0.00,M,,,,0000*31\r\n$GPRMC,131803.000,A,0000.0000,N,00000.0000,E,0.00,000.00,140115,,,A*66\r\n\r\nOK\r\n
[ 13:18:04.465 ] [27:INFO] cmd: ATS89?*47C6
[ 13:18:04.465 ] [27:INFO] res: \r\n00001\r\n\r\nOK\r\n
[ 13:18:04.465 ] [27:INFO] cmd: AT%GPS=30,2,"RMC","GGA"*D90A
[ 13:18:04.465 ] [27:INFO] res: \r\n%GPS: $GPGGA,131804.000,0000.0000,N,00000.0000,E,1,05,3.0,0.00,M,,,,0000*36\r\n$GPRMC,131804.000,A,0000.0000,N,00000.0000,E,0.00,000.00,140115,,,A*61\r\n\r\nOK\r\n
[ 13:18:05.485 ] [27:INFO] cmd: ATS89?*47C6
[ 13:18:05.485 ] [27:INFO] res: \r\n00001\r\n\r\nOK\r\n
[ 13:18:05.485 ] [27:INFO] cmd: AT%GPS=30,2,"RMC","GGA"*D90A
[ 13:18:05.485 ] [27:INFO] res: \r\n%GPS: $GPGGA,131805.000,0000.0000,N,00000.0000,E,1,05,3.0,0.00,M,,,,0000*37\r\n$GPRMC,131805.000,A,0000.0000,N,00000.0000,E,0.00,000.00,140115,,,A*60\r\n\r\nOK\r\n
[ 13:18:06.495 ] [27:INFO] cmd: ATS89?*47C6
[ 13:18:06.495 ] [27:INFO] res: \r\n00001\r\n\r\nOK\r\n
[ 13:18:06.495 ] [27:INFO] cmd: AT%GPS=30,2,"RMC","GGA"*D90A
[ 13:18:06.495 ] [27:INFO] res: \r\n%GPS: $GPGGA,131806.000,0000.0000,N,00000.0000,E,1,05,3.0,0.00,M,,,,0000*34\r\n$GPRMC,131806.000,A,0000.0000,N,00000.0000,E,0.00,000.00,140115,,,A*63\r\n\r\nOK\r\n
[ 13:18:07.515 ] [27:INFO] cmd: ATS89?*47C6
[ 13:18:07.515 ] [27:INFO] res: \r\n00001\r\n\r\nOK\r\n
[ 13:18:07.515 ] [27:INFO] cmd: AT%GPS=30,2,"RMC","GGA"*D90A
[ 13:18:07.515 ] [27:INFO] res: \r\n%GPS: $GPGGA,131807.000,0000.0000,N,00000.0000,E,1,05,3.0,0.00,M,,,,0000*35\r\n$GPRMC,131807.000,A,0000.0000,N,00000.0000,E,0.00,000.00,140115,,,A*62\r\n\r\nOK\r\n
[ 13:18:08.525 ] [27:INFO] cmd: ATS89?*47C6
[ 13:18:08.525 ] [27:INFO] res: \r\n00001\r\n\r\nOK\r\n
[ 13:18:08.525 ] [27:INFO] cmd: AT%GPS=30,2,"RMC","GGA"*D90A
[ 13:18:08.525 ] [27:INFO] res: \r\n%GPS: $GPGGA,131808.000,0000.0000,N,00000.0000,E,1,05,3.0,0.00,M,,,,0000*3A\r\n$GPRMC,131808.000,A,0000.0000,N,00000.0000,E,0.00,000.00,140115,,,A*6D\r\n\r\nOK\r\n
[ 13:18:09.535 ] [27:INFO] cmd: ATS89?*47C6
[ 13:18:09.535 ] [27:INFO] res: \r\n00001\r\n\r\nOK\r\n
[ 13:18:09.535 ] [27:INFO] cmd: AT%GPS=30,2,"RMC","GGA"*D90A
[ 13:18:09.535 ] [27:INFO] res: \r\n%GPS: $GPGGA,131809.000,0000.0000,N,00000.0000,E,1,05,3.0,0.00,M,,,,0000*3B\r\n$GPRMC,131809.000,A,0000.0000,N,00000.0000,E,0.00,000.00,140115,,,A*6C\r\n\r\nOK\r\n
[ 13:18:10.555 ] [27:INFO] cmd: ATS89?*47C6
[ 13:18:10.565 ] [27:INFO] res: \r\n00001\r\n\r\nOK\r\n
[ 13:18:10.565 ] [27:INFO] cmd: AT%GPS=30,2,"RMC","GGA"*D90A
[ 13:18:10.565 ] [27:INFO] res: \r\n%GPS: $GPGGA,131810.000,0000.0000,N,00000.0000,E,1,05,3.0,0.00,M,,,,0000*33\r\n$GPRMC,131810.000,A,0000.0000,N,00000.0000,E,0.00,000.00,140115,,,A*64\r\n\r\nOK\r\n
[ 13:18:11.565 ] [27:INFO] cmd: ATS89?*47C6
[ 13:18:11.565 ] [27:INFO] res: \r\n00001\r\n\r\nOK\r\n
[ 13:18:11.565 ] [27:INFO] cmd: AT%GPS=30,2,"RMC","GGA"*D90A
[ 13:18:11.565 ] [27:INFO] res: \r\n%GPS: $GPGGA,131811.000,0000.0000,N,00000.0000,E,1,05,3.0,0.00,M,,,,0000*32\r\n$GPRMC,131811.000,A,0000.0000,N,00000.0000,E,0.00,000.00,140115,,,A*65\r\n\r\nOK\r\n
[ 13:18:12.465 ] [115:INFO] Event GpsBlocked state unchanged
[ 13:18:12.465 ] [27:INFO] cmd: AT%EVNT=3,1*BC22
[ 13:18:12.465 ] [27:INFO] res: \r\n%EVNT: 24,16777215,0,442934288,3,1,4,95776,0,0,0,0,0,0,0,0,0,0,0,0,0,0,0,0,0,0,257,0,0,0,0\r\n\r\nOK\r\n
[ 13:18:12.465 ] [115:INFO] Event IdpBlocked state unchanged
[ 13:18:12.585 ] [27:INFO] cmd: ATS89?*47C6
[ 13:18:12.585 ] [27:INFO] res: \r\n00001\r\n\r\nOK\r\n
[ 13:18:12.585 ] [27:INFO] cmd: AT%GPS=30,2,"RMC","GGA"*D90A
[ 13:18:12.595 ] [27:INFO] res: \r\n%GPS: $GPGGA,131812.000,0000.0000,N,00000.0000,E,1,05,3.0,0.00,M,,,,0000*31\r\n$GPRMC,131812.000,A,0000.0000,N,00000.0000,E,0.00,000.00,140115,,,A*66\r\n\r\nOK\r\n
[ 13:18:13.595 ] [27:INFO] cmd: ATS89?*47C6
[ 13:18:13.595 ] [27:INFO] res: \r\n00001\r\n\r\nOK\r\n
[ 13:18:13.595 ] [27:INFO] cmd: AT%GPS=30,2,"RMC","GGA"*D90A
[ 13:18:13.595 ] [27:INFO] res: \r\n%GPS: $GPGGA,131813.000,0000.0000,N,00000.0000,E,1,05,3.0,0.00,M,,,,0000*30\r\n$GPRMC,131813.000,A,0000.0000,N,00000.0000,E,0.00,000.00,140115,,,A*67\r\n\r\nOK\r\n
[ 13:18:14.605 ] [27:INFO] cmd: ATS89?*47C6
[ 13:18:14.605 ] [27:INFO] res: \r\n00001\r\n\r\nOK\r\n
[ 13:18:14.605 ] [27:INFO] cmd: AT%GPS=30,2,"RMC","GGA"*D90A
[ 13:18:14.605 ] [27:INFO] res: \r\n%GPS: $GPGGA,131814.000,0000.0000,N,00000.0000,E,1,05,3.0,0.00,M,,,,0000*37\r\n$GPRMC,131814.000,A,0000.0000,N,00000.0000,E,0.00,000.00,140115,,,A*60\r\n\r\nOK\r\n
[ 13:18:15.625 ] [27:INFO] cmd: ATS89?*47C6
[ 13:18:15.625 ] [27:INFO] res: \r\n00001\r\n\r\nOK\r\n
[ 13:18:15.625 ] [27:INFO] cmd: AT%GPS=30,2,"RMC","GGA"*D90A
[ 13:18:15.625 ] [27:INFO] res: \r\n%GPS: $GPGGA,131815.000,0000.0000,N,00000.0000,E,1,05,3.0,0.00,M,,,,0000*36\r\n$GPRMC,131815.000,A,0000.0000,N,00000.0000,E,0.00,000.00,140115,,,A*61\r\n\r\nOK\r\n
[ 13:18:16.635 ] [27:INFO] cmd: ATS89?*47C6
[ 13:18:16.635 ] [27:INFO] res: \r\n00001\r\n\r\nOK\r\n
[ 13:18:16.635 ] [27:INFO] cmd: AT%GPS=30,2,"RMC","GGA"*D90A
[ 13:18:16.635 ] [27:INFO] res: \r\n%GPS: $GPGGA,131816.000,0000.0000,N,00000.0000,E,1,05,3.0,0.00,M,,,,0000*35\r\n$GPRMC,131816.000,A,0000.0000,N,00000.0000,E,0.00,000.00,140115,,,A*62\r\n\r\nOK\r\n
[ 13:18:17.655 ] [27:INFO] cmd: ATS89?*47C6
[ 13:18:17.655 ] [27:INFO] res: \r\n00001\r\n\r\nOK\r\n
[ 13:18:17.655 ] [27:INFO] cmd: AT%GPS=30,2,"RMC","GGA"*D90A
[ 13:18:17.655 ] [27:INFO] res: \r\n%GPS: $GPGGA,131817.000,0000.0000,N,00000.0000,E,1,05,3.0,0.00,M,,,,0000*34\r\n$GPRMC,131817.000,A,0000.0000,N,00000.0000,E,0.00,000.00,140115,,,A*63\r\n\r\nOK\r\n
[ 13:18:18.665 ] [27:INFO] cmd: ATS89?*47C6
[ 13:18:18.665 ] [27:INFO] res: \r\n00001\r\n\r\nOK\r\n
[ 13:18:18.665 ] [27:INFO] cmd: AT%GPS=30,2,"RMC","GGA"*D90A
[ 13:18:18.665 ] [27:INFO] res: \r\n%GPS: $GPGGA,131818.000,0000.0000,N,00000.0000,E,1,05,3.0,0.00,M,,,,0000*3B\r\n$GPRMC,131818.000,A,0000.0000,N,00000.0000,E,0.00,000.00,140115,,,A*6C\r\n\r\nOK\r\n
[ 13:18:19.675 ] [27:INFO] cmd: ATS89?*47C6
[ 13:18:19.675 ] [27:INFO] res: \r\n00001\r\n\r\nOK\r\n
[ 13:18:19.675 ] [27:INFO] cmd: AT%GPS=30,2,"RMC","GGA"*D90A
[ 13:18:19.675 ] [27:INFO] res: \r\n%GPS: $GPGGA,131819.000,0000.0000,N,00000.0000,E,1,05,3.0,0.00,M,,,,0000*3A\r\n$GPRMC,131819.000,A,0000.0000,N,00000.0000,E,0.00,000.00,140115,,,A*6D\r\n\r\nOK\r\n
[ 13:18:20.695 ] [27:INFO] cmd: ATS89?*47C6
[ 13:18:20.695 ] [27:INFO] res: \r\n00001\r\n\r\nOK\r\n
[ 13:18:20.695 ] [27:INFO] cmd: AT%GPS=30,2,"RMC","GGA"*D90A
[ 13:18:20.695 ] [27:INFO] res: \r\n%GPS: $GPGGA,131820.000,0000.0000,N,00000.0000,E,1,05,3.0,0.00,M,,,,0000*30\r\n$GPRMC,131820.000,A,0000.0000,N,00000.0000,E,0.00,000.00,140115,,,A*67\r\n\r\nOK\r\n
[ 13:18:21.015 ] [18:INFO] queuing RL msg #598 (SIN=115, bits=152)
[ 13:18:21.015 ] [115:INFO] LED 1 is set to  1
[ 13:18:21.025 ] [18:INFO] completed log msg #599 (SIN=115), status=Success
[ 13:18:21.025 ] [115:INFO] Next Report: Standard in 60 seconds
[ 13:18:21.025 ] [18:INFO] sending RL msg #598 trn #1 (SIN=115, bits=152)
[ 13:18:21.035 ] [27:INFO] cmd: AT%MGRT="00000256",3,115,3,FKls2TgAAAAAAAAAWkeUAAA
[ 13:18:21.035 ] [27:INFO] res: \r\nOK\r\n
[ 13:18:21.705 ] [27:INFO] cmd: ATS89?*47C6
[ 13:18:21.705 ] [27:INFO] res: \r\n00001\r\n\r\nOK\r\n
[ 13:18:21.705 ] [27:INFO] cmd: AT%GPS=30,2,"RMC","GGA"*D90A
[ 13:18:21.705 ] [27:INFO] res: \r\n%GPS: $GPGGA,131821.000,0000.0000,N,00000.0000,E,1,05,3.0,0.00,M,,,,0000*31\r\n$GPRMC,131821.000,A,0000.0000,N,00000.0000,E,0.00,000.00,140115,,,A*66\r\n\r\nOK\r\n
[ 13:18:22.725 ] [27:INFO] cmd: ATS89?*47C6
[ 13:18:22.725 ] [27:INFO] res: \r\n00001\r\n\r\nOK\r\n
[ 13:18:22.725 ] [27:INFO] cmd: AT%GPS=30,2,"RMC","GGA"*D90A
[ 13:18:22.725 ] [27:INFO] res: \r\n%GPS: $GPGGA,131822.000,0000.0000,N,00000.0000,E,1,05,3.0,0.00,M,,,,0000*32\r\n$GPRMC,131822.000,A,0000.0000,N,00000.0000,E,0.00,000.00,140115,,,A*65\r\n\r\nOK\r\n
[ 13:18:23.735 ] [27:INFO] cmd: ATS89?*47C6
[ 13:18:23.735 ] [27:INFO] res: \r\n00001\r\n\r\nOK\r\n
[ 13:18:23.735 ] [27:INFO] cmd: AT%GPS=30,2,"RMC","GGA"*D90A
[ 13:18:23.735 ] [27:INFO] res: \r\n%GPS: $GPGGA,131823.000,0000.0000,N,00000.0000,E,1,05,3.0,0.00,M,,,,0000*33\r\n$GPRMC,131823.000,A,0000.0000,N,00000.0000,E,0.00,000.00,140115,,,A*64\r\n\r\nOK\r\n
[ 13:18:24.745 ] [27:INFO] cmd: ATS89?*47C6
[ 13:18:24.745 ] [27:INFO] res: \r\n00001\r\n\r\nOK\r\n
[ 13:18:24.745 ] [27:INFO] cmd: AT%GPS=30,2,"RMC","GGA"*D90A
[ 13:18:24.745 ] [27:INFO] res: \r\n%GPS: $GPGGA,131824.000,0000.0000,N,00000.0000,E,1,05,3.0,0.00,M,,,,0000*34\r\n$GPRMC,131824.000,A,0000.0000,N,00000.0000,E,0.00,000.00,140115,,,A*63\r\n\r\nOK\r\n
[ 13:18:25.765 ] [27:INFO] cmd: ATS89?*47C6
[ 13:18:25.765 ] [27:INFO] res: \r\n00001\r\n\r\nOK\r\n
[ 13:18:25.765 ] [27:INFO] cmd: AT%GPS=30,2,"RMC","GGA"*D90A
[ 13:18:25.765 ] [27:INFO] res: \r\n%GPS: $GPGGA,131825.000,0000.0000,N,00000.0000,E,1,05,3.0,0.00,M,,,,0000*35\r\n$GPRMC,131825.000,A,0000.0000,N,00000.0000,E,0.00,000.00,140115,,,A*62\r\n\r\nOK\r\n
[ 13:18:26.775 ] [27:INFO] cmd: ATS89?*47C6
[ 13:18:26.775 ] [27:INFO] res: \r\n00005\r\n\r\nOK\r\n
[ 13:18:26.775 ] [27:INFO] cmd: AT%GPS=30,2,"RMC","GGA"*D90A
[ 13:18:26.785 ] [27:INFO] res: \r\n%GPS: $GPGGA,131826.000,0000.0000,N,00000.0000,E,1,05,3.0,0.00,M,,,,0000*36\r\n$GPRMC,131826.000,A,0000.0000,N,00000.0000,E,0.00,000.00,140115,,,A*61\r\n\r\nOK\r\n
[ 13:18:26.785 ] [27:INFO] cmd: AT%MGRS*04F9
[ 13:18:26.795 ] [27:INFO] res: \r\n%MGRS: "00000256",312.1,3,115,6,19,19\r\n\r\nOK\r\n
[ 13:18:26.795 ] [18:INFO] completed RL msg #598 (SIN=115), status=Success
[ 13:18:27.795 ] [27:INFO] cmd: ATS89?*47C6
[ 13:18:27.795 ] [27:INFO] res: \r\n00001\r\n\r\nOK\r\n
[ 13:18:27.795 ] [27:INFO] cmd: AT%GPS=30,2,"RMC","GGA"*D90A
[ 13:18:27.805 ] [27:INFO] res: \r\n%GPS: $GPGGA,131827.000,0000.0000,N,00000.0000,E,1,05,3.0,0.00,M,,,,0000*37\r\n$GPRMC,131827.000,A,0000.0000,N,00000.0000,E,0.00,000.00,140115,,,A*60\r\n\r\nOK\r\n
[ 13:18:28.805 ] [27:INFO] cmd: ATS89?*47C6
[ 13:18:28.805 ] [27:INFO] res: \r\n00001\r\n\r\nOK\r\n
[ 13:18:28.805 ] [27:INFO] cmd: AT%GPS=30,2,"RMC","GGA"*D90A
[ 13:18:28.815 ] [27:INFO] res: \r\n%GPS: $GPGGA,131828.000,0000.0000,N,00000.0000,E,1,05,3.0,0.00,M,,,,0000*38\r\n$GPRMC,131828.000,A,0000.0000,N,00000.0000,E,0.00,000.00,140115,,,A*6F\r\n\r\nOK\r\n
[ 13:18:29.815 ] [27:INFO] cmd: ATS89?*47C6
[ 13:18:29.815 ] [27:INFO] res: \r\n00001\r\n\r\nOK\r\n
[ 13:18:29.815 ] [27:INFO] cmd: AT%GPS=30,2,"RMC","GGA"*D90A
[ 13:18:29.835 ] [27:INFO] res: \r\n%GPS: $GPGGA,131829.000,0000.0000,N,00000.0000,E,1,05,3.0,0.00,M,,,,0000*39\r\n$GPRMC,131829.000,A,0000.0000,N,00000.0000,E,0.00,000.00,140115,,,A*6E\r\n\r\nOK\r\n
[ 13:18:30.835 ] [27:INFO] cmd: ATS89?*47C6
[ 13:18:30.835 ] [27:INFO] res: \r\n00001\r\n\r\nOK\r\n
[ 13:18:30.835 ] [27:INFO] cmd: AT%GPS=30,2,"RMC","GGA"*D90A
[ 13:18:30.835 ] [27:INFO] res: \r\n%GPS: $GPGGA,131830.000,0000.0000,N,00000.0000,E,1,05,3.0,0.00,M,,,,0000*31\r\n$GPRMC,131830.000,A,0000.0000,N,00000.0000,E,0.00,000.00,140115,,,A*66\r\n\r\nOK\r\n
[ 13:18:30.945 ] [115:INFO] LED 1 is set to  3
[ 13:18:31.845 ] [27:INFO] cmd: ATS89?*47C6
[ 13:18:31.845 ] [27:INFO] res: \r\n00001\r\n\r\nOK\r\n
[ 13:18:31.845 ] [27:INFO] cmd: AT%GPS=30,2,"RMC","GGA"*D90A
[ 13:18:31.845 ] [27:INFO] res: \r\n%GPS: $GPGGA,131831.000,0000.0000,N,00000.0000,E,1,05,3.0,0.00,M,,,,0000*30\r\n$GPRMC,131831.000,A,0000.0000,N,00000.0000,E,0.00,000.00,140115,,,A*67\r\n\r\nOK\r\n
[ 13:18:32.865 ] [27:INFO] cmd: ATS89?*47C6
[ 13:18:32.865 ] [27:INFO] res: \r\n00001\r\n\r\nOK\r\n
[ 13:18:32.865 ] [27:INFO] cmd: AT%GPS=30,2,"RMC","GGA"*D90A
[ 13:18:32.865 ] [27:INFO] res: \r\n%GPS: $GPGGA,131832.000,0000.0000,N,00000.0000,E,1,05,3.0,0.00,M,,,,0000*33\r\n$GPRMC,131832.000,A,0000.0000,N,00000.0000,E,0.00,000.00,140115,,,A*64\r\n\r\nOK\r\n
[ 13:18:33.875 ] [27:INFO] cmd: ATS89?*47C6
[ 13:18:33.875 ] [27:INFO] res: \r\n00001\r\n\r\nOK\r\n
[ 13:18:33.875 ] [27:INFO] cmd: AT%GPS=30,2,"RMC","GGA"*D90A
[ 13:18:33.875 ] [27:INFO] res: \r\n%GPS: $GPGGA,131833.000,0000.0000,N,00000.0000,E,1,05,3.0,0.00,M,,,,0000*32\r\n$GPRMC,131833.000,A,0000.0000,N,00000.0000,E,0.00,000.00,140115,,,A*65\r\n\r\nOK\r\n
[ 13:18:34.885 ] [27:INFO] cmd: ATS89?*47C6
[ 13:18:34.885 ] [27:INFO] res: \r\n00001\r\n\r\nOK\r\n
[ 13:18:34.885 ] [27:INFO] cmd: AT%GPS=30,2,"RMC","GGA"*D90A
[ 13:18:34.885 ] [27:INFO] res: \r\n%GPS: $GPGGA,131834.000,0000.0000,N,00000.0000,E,1,05,3.0,0.00,M,,,,0000*35\r\n$GPRMC,131834.000,A,0000.0000,N,00000.0000,E,0.00,000.00,140115,,,A*62\r\n\r\nOK\r\n
[ 13:18:35.905 ] [27:INFO] cmd: ATS89?*47C6
[ 13:18:35.905 ] [27:INFO] res: \r\n00001\r\n\r\nOK\r\n
[ 13:18:35.905 ] [27:INFO] cmd: AT%GPS=30,2,"RMC","GGA"*D90A
[ 13:18:35.915 ] [27:INFO] res: \r\n%GPS: $GPGGA,131835.000,0000.0000,N,00000.0000,E,1,05,3.0,0.00,M,,,,0000*34\r\n$GPRMC,131835.000,A,0000.0000,N,00000.0000,E,0.00,000.00,140115,,,A*63\r\n\r\nOK\r\n
[ 13:18:36.915 ] [27:INFO] cmd: ATS89?*47C6
[ 13:18:36.915 ] [27:INFO] res: \r\n00001\r\n\r\nOK\r\n
[ 13:18:36.925 ] [27:INFO] cmd: AT%GPS=30,2,"RMC","GGA"*D90A
[ 13:18:36.935 ] [27:INFO] res: \r\n%GPS: $GPGGA,131836.000,0000.0000,N,00000.0000,E,1,05,3.0,0.00,M,,,,0000*37\r\n$GPRMC,131836.000,A,0000.0000,N,00000.0000,E,0.00,000.00,140115,,,A*60\r\n\r\nOK\r\n
[ 13:18:37.935 ] [27:INFO] cmd: ATS89?*47C6
[ 13:18:37.935 ] [27:INFO] res: \r\n00001\r\n\r\nOK\r\n
[ 13:18:37.935 ] [27:INFO] cmd: AT%GPS=30,2,"RMC","GGA"*D90A
[ 13:18:37.935 ] [27:INFO] res: \r\n%GPS: $GPGGA,131837.000,0000.0000,N,00000.0000,E,1,05,3.0,0.00,M,,,,0000*36\r\n$GPRMC,131837.000,A,0000.0000,N,00000.0000,E,0.00,000.00,140115,,,A*61\r\n\r\nOK\r\n
[ 13:18:38.945 ] [27:INFO] cmd: ATS89?*47C6
[ 13:18:38.945 ] [27:INFO] res: \r\n00001\r\n\r\nOK\r\n
[ 13:18:38.945 ] [27:INFO] cmd: AT%GPS=30,2,"RMC","GGA"*D90A
[ 13:18:38.945 ] [27:INFO] res: \r\n%GPS: $GPGGA,131838.000,0000.0000,N,00000.0000,E,1,05,3.0,0.00,M,,,,0000*39\r\n$GPRMC,131838.000,A,0000.0000,N,00000.0000,E,0.00,000.00,140115,,,A*6E\r\n\r\nOK\r\n
[ 13:18:39.955 ] [27:INFO] cmd: ATS89?*47C6
[ 13:18:39.955 ] [27:INFO] res: \r\n00001\r\n\r\nOK\r\n
[ 13:18:39.965 ] [27:INFO] cmd: AT%GPS=30,2,"RMC","GGA"*D90A
[ 13:18:39.965 ] [27:INFO] res: \r\n%GPS: $GPGGA,131839.000,0000.0000,N,00000.0000,E,1,05,3.0,0.00,M,,,,0000*38\r\n$GPRMC,131839.000,A,0000.0000,N,00000.0000,E,0.00,000.00,140115,,,A*6F\r\n\r\nOK\r\n
[ 13:18:40.975 ] [27:INFO] cmd: ATS89?*47C6
[ 13:18:40.975 ] [27:INFO] res: \r\n00001\r\n\r\nOK\r\n
[ 13:18:40.975 ] [27:INFO] cmd: AT%GPS=30,2,"RMC","GGA"*D90A
[ 13:18:40.985 ] [27:INFO] res: \r\n%GPS: $GPGGA,131840.000,0000.0000,N,00000.0000,E,1,05,3.0,0.00,M,,,,0000*36\r\n$GPRMC,131840.000,A,0000.0000,N,00000.0000,E,0.00,000.00,140115,,,A*61\r\n\r\nOK\r\n
[ 13:18:41.985 ] [27:INFO] cmd: ATS89?*47C6
[ 13:18:41.985 ] [27:INFO] res: \r\n00001\r\n\r\nOK\r\n
[ 13:18:41.985 ] [27:INFO] cmd: AT%GPS=30,2,"RMC","GGA"*D90A
[ 13:18:41.985 ] [27:INFO] res: \r\n%GPS: $GPGGA,131841.000,0000.0000,N,00000.0000,E,1,05,3.0,0.00,M,,,,0000*37\r\n$GPRMC,131841.000,A,0000.0000,N,00000.0000,E,0.00,000.00,140115,,,A*60\r\n\r\nOK\r\n
[ 13:18:43.025 ] [27:INFO] cmd: ATS89?*47C6
[ 13:18:43.035 ] [27:INFO] res: \r\n00001\r\n\r\nOK\r\n
[ 13:18:43.035 ] [27:INFO] cmd: AT%GPS=30,2,"RMC","GGA"*D90A
[ 13:18:43.035 ] [27:INFO] res: \r\n%GPS: $GPGGA,131843.000,0000.0000,N,00000.0000,E,1,05,3.0,0.00,M,,,,0000*35\r\n$GPRMC,131843.000,A,0000.0000,N,00000.0000,E,0.00,000.00,140115,,,A*62\r\n\r\nOK\r\n
[ 13:18:44.015 ] [27:INFO] cmd: ATS89?*47C6
[ 13:18:44.015 ] [27:INFO] res: \r\n00001\r\n\r\nOK\r\n
[ 13:18:44.015 ] [27:INFO] cmd: AT%GPS=30,2,"RMC","GGA"*D90A
[ 13:18:44.015 ] [27:INFO] res: \r\n%GPS: $GPGGA,131844.000,0000.0000,N,00000.0000,E,1,05,3.0,0.00,M,,,,0000*32\r\n$GPRMC,131844.000,A,0000.0000,N,00000.0000,E,0.00,000.00,140115,,,A*65\r\n\r\nOK\r\n
[ 13:18:45.025 ] [27:INFO] cmd: ATS89?*47C6
[ 13:18:45.025 ] [27:INFO] res: \r\n00001\r\n\r\nOK\r\n
[ 13:18:45.025 ] [27:INFO] cmd: AT%GPS=30,2,"RMC","GGA"*D90A
[ 13:18:45.025 ] [27:INFO] res: \r\n%GPS: $GPGGA,131845.000,0000.0000,N,00000.0000,E,1,05,3.0,0.00,M,,,,0000*33\r\n$GPRMC,131845.000,A,0000.0000,N,00000.0000,E,0.00,000.00,140115,,,A*64\r\n\r\nOK\r\n
[ 13:18:46.045 ] [27:INFO] cmd: ATS89?*47C6
[ 13:18:46.045 ] [27:INFO] res: \r\n00001\r\n\r\nOK\r\n
[ 13:18:46.045 ] [27:INFO] cmd: AT%GPS=30,2,"RMC","GGA"*D90A
[ 13:18:46.045 ] [27:INFO] res: \r\n%GPS: $GPGGA,131846.000,0000.0000,N,00000.0000,E,1,05,3.0,0.00,M,,,,0000*30\r\n$GPRMC,131846.000,A,0000.0000,N,00000.0000,E,0.00,000.00,140115,,,A*67\r\n\r\nOK\r\n
[ 13:18:47.055 ] [27:INFO] cmd: ATS89?*47C6
[ 13:18:47.055 ] [27:INFO] res: \r\n00001\r\n\r\nOK\r\n
[ 13:18:47.055 ] [27:INFO] cmd: AT%GPS=30,2,"RMC","GGA"*D90A
[ 13:18:47.065 ] [27:INFO] res: \r\n%GPS: $GPGGA,131847.000,0000.0000,N,00000.0000,E,1,05,3.0,0.00,M,,,,0000*31\r\n$GPRMC,131847.000,A,0000.0000,N,00000.0000,E,0.00,000.00,140115,,,A*66\r\n\r\nOK\r\n
[ 13:18:48.075 ] [27:INFO] cmd: ATS89?*47C6
[ 13:18:48.075 ] [27:INFO] res: \r\n00001\r\n\r\nOK\r\n
[ 13:18:48.075 ] [27:INFO] cmd: AT%GPS=30,2,"RMC","GGA"*D90A
[ 13:18:48.075 ] [27:INFO] res: \r\n%GPS: $GPGGA,131848.000,0000.0000,N,00000.0000,E,1,05,3.0,0.00,M,,,,0000*3E\r\n$GPRMC,131848.000,A,0000.0000,N,00000.0000,E,0.00,000.00,140115,,,A*69\r\n\r\nOK\r\n
[ 13:18:49.085 ] [27:INFO] cmd: ATS89?*47C6
[ 13:18:49.085 ] [27:INFO] res: \r\n00001\r\n\r\nOK\r\n
[ 13:18:49.085 ] [27:INFO] cmd: AT%GPS=30,2,"RMC","GGA"*D90A
[ 13:18:49.085 ] [27:INFO] res: \r\n%GPS: $GPGGA,131849.000,0000.0000,N,00000.0000,E,1,05,3.0,0.00,M,,,,0000*3F\r\n$GPRMC,131849.000,A,0000.0000,N,00000.0000,E,0.00,000.00,140115,,,A*68\r\n\r\nOK\r\n
[ 13:18:50.095 ] [27:INFO] cmd: ATS89?*47C6
[ 13:18:50.095 ] [27:INFO] res: \r\n00001\r\n\r\nOK\r\n
[ 13:18:50.095 ] [27:INFO] cmd: AT%GPS=30,2,"RMC","GGA"*D90A
[ 13:18:50.095 ] [27:INFO] res: \r\n%GPS: $GPGGA,131850.000,0000.0000,N,00000.0000,E,1,05,3.0,0.00,M,,,,0000*37\r\n$GPRMC,131850.000,A,0000.0000,N,00000.0000,E,0.00,000.00,140115,,,A*60\r\n\r\nOK\r\n
[ 13:18:51.115 ] [27:INFO] cmd: ATS89?*47C6
[ 13:18:51.115 ] [27:INFO] res: \r\n00001\r\n\r\nOK\r\n
[ 13:18:51.115 ] [27:INFO] cmd: AT%GPS=30,2,"RMC","GGA"*D90A
[ 13:18:51.115 ] [27:INFO] res: \r\n%GPS: $GPGGA,131851.000,0000.0000,N,00000.0000,E,1,05,3.0,0.00,M,,,,0000*36\r\n$GPRMC,131851.000,A,0000.0000,N,00000.0000,E,0.00,000.00,140115,,,A*61\r\n\r\nOK\r\n
[ 13:18:52.125 ] [27:INFO] cmd: ATS89?*47C6
[ 13:18:52.125 ] [27:INFO] res: \r\n00001\r\n\r\nOK\r\n
[ 13:18:52.125 ] [27:INFO] cmd: AT%GPS=30,2,"RMC","GGA"*D90A
[ 13:18:52.135 ] [27:INFO] res: \r\n%GPS: $GPGGA,131852.000,0000.0000,N,00000.0000,E,1,05,3.0,0.00,M,,,,0000*35\r\n$GPRMC,131852.000,A,0000.0000,N,00000.0000,E,0.00,000.00,140115,,,A*62\r\n\r\nOK\r\n
[ 13:18:53.145 ] [27:INFO] cmd: ATS89?*47C6
[ 13:18:53.145 ] [27:INFO] res: \r\n00001\r\n\r\nOK\r\n
[ 13:18:53.145 ] [27:INFO] cmd: AT%GPS=30,2,"RMC","GGA"*D90A
[ 13:18:53.145 ] [27:INFO] res: \r\n%GPS: $GPGGA,131853.000,0000.0000,N,00000.0000,E,1,05,3.0,0.00,M,,,,0000*34\r\n$GPRMC,131853.000,A,0000.0000,N,00000.0000,E,0.00,000.00,140115,,,A*63\r\n\r\nOK\r\n
[ 13:18:54.155 ] [27:INFO] cmd: ATS89?*47C6
[ 13:18:54.155 ] [27:INFO] res: \r\n00001\r\n\r\nOK\r\n
[ 13:18:54.155 ] [27:INFO] cmd: AT%GPS=30,2,"RMC","GGA"*D90A
[ 13:18:54.155 ] [27:INFO] res: \r\n%GPS: $GPGGA,131854.000,0000.0000,N,00000.0000,E,1,05,3.0,0.00,M,,,,0000*33\r\n$GPRMC,131854.000,A,0000.0000,N,00000.0000,E,0.00,000.00,140115,,,A*64\r\n\r\nOK\r\n
[ 13:18:55.165 ] [27:INFO] cmd: ATS89?*47C6
[ 13:18:55.165 ] [27:INFO] res: \r\n00001\r\n\r\nOK\r\n
[ 13:18:55.165 ] [27:INFO] cmd: AT%GPS=30,2,"RMC","GGA"*D90A
[ 13:18:55.175 ] [27:INFO] res: \r\n%GPS: $GPGGA,131855.000,0000.0000,N,00000.0000,E,1,05,3.0,0.00,M,,,,0000*32\r\n$GPRMC,131855.000,A,0000.0000,N,00000.0000,E,0.00,000.00,140115,,,A*65\r\n\r\nOK\r\n
[ 13:18:56.185 ] [27:INFO] cmd: ATS89?*47C6
[ 13:18:56.185 ] [27:INFO] res: \r\n00001\r\n\r\nOK\r\n
[ 13:18:56.185 ] [27:INFO] cmd: AT%GPS=30,2,"RMC","GGA"*D90A
[ 13:18:56.185 ] [27:INFO] res: \r\n%GPS: $GPGGA,131856.000,0000.0000,N,00000.0000,E,1,05,3.0,0.00,M,,,,0000*31\r\n$GPRMC,131856.000,A,0000.0000,N,00000.0000,E,0.00,000.00,140115,,,A*66\r\n\r\nOK\r\n
[ 13:18:57.205 ] [27:INFO] cmd: ATS89?*47C6
[ 13:18:57.215 ] [27:INFO] res: \r\n00001\r\n\r\nOK\r\n
[ 13:18:57.215 ] [27:INFO] cmd: AT%GPS=30,2,"RMC","GGA"*D90A
[ 13:18:57.215 ] [27:INFO] res: \r\n%GPS: $GPGGA,131857.000,0000.0000,N,00000.0000,E,1,05,3.0,0.00,M,,,,0000*30\r\n$GPRMC,131857.000,A,0000.0000,N,00000.0000,E,0.00,000.00,140115,,,A*67\r\n\r\nOK\r\n
[ 13:18:58.215 ] [27:INFO] cmd: ATS89?*47C6
[ 13:18:58.215 ] [27:INFO] res: \r\n00001\r\n\r\nOK\r\n
[ 13:18:58.215 ] [27:INFO] cmd: AT%GPS=30,2,"RMC","GGA"*D90A
[ 13:18:58.215 ] [27:INFO] res: \r\n%GPS: $GPGGA,131858.000,0000.0000,N,00000.0000,E,1,05,3.0,0.00,M,,,,0000*3F\r\n$GPRMC,131858.000,A,0000.0000,N,00000.0000,E,0.00,000.00,140115,,,A*68\r\n\r\nOK\r\n
[ 13:18:59.225 ] [27:INFO] cmd: ATS89?*47C6
[ 13:18:59.225 ] [27:INFO] res: \r\n00001\r\n\r\nOK\r\n
[ 13:18:59.225 ] [27:INFO] cmd: AT%GPS=30,2,"RMC","GGA"*D90A
[ 13:18:59.235 ] [27:INFO] res: \r\n%GPS: $GPGGA,131859.000,0000.0000,N,00000.0000,E,1,05,3.0,0.00,M,,,,0000*3E\r\n$GPRMC,131859.000,A,0000.0000,N,00000.0000,E,0.00,000.00,140115,,,A*69\r\n\r\nOK\r\n
[ 13:19:00.235 ] [27:INFO] cmd: ATS89?*47C6
[ 13:19:00.235 ] [27:INFO] res: \r\n00001\r\n\r\nOK\r\n
[ 13:19:00.235 ] [27:INFO] cmd: AT%GPS=30,2,"RMC","GGA"*D90A
[ 13:19:00.235 ] [27:INFO] res: \r\n%GPS: $GPGGA,131900.000,0000.0000,N,00000.0000,E,1,05,3.0,0.00,M,,,,0000*33\r\n$GPRMC,131900.000,A,0000.0000,N,00000.0000,E,0.00,000.00,140115,,,A*64\r\n\r\nOK\r\n
[ 13:19:01.255 ] [27:INFO] cmd: ATS89?*47C6
[ 13:19:01.255 ] [27:INFO] res: \r\n00001\r\n\r\nOK\r\n
[ 13:19:01.255 ] [27:INFO] cmd: AT%GPS=30,2,"RMC","GGA"*D90A
[ 13:19:01.255 ] [27:INFO] res: \r\n%GPS: $GPGGA,131901.000,0000.0000,N,00000.0000,E,1,05,3.0,0.00,M,,,,0000*32\r\n$GPRMC,131901.000,A,0000.0000,N,00000.0000,E,0.00,000.00,140115,,,A*65\r\n\r\nOK\r\n
[ 13:19:02.265 ] [27:INFO] cmd: ATS89?*47C6
[ 13:19:02.265 ] [27:INFO] res: \r\n00001\r\n\r\nOK\r\n
[ 13:19:02.265 ] [27:INFO] cmd: AT%GPS=30,2,"RMC","GGA"*D90A
[ 13:19:02.265 ] [27:INFO] res: \r\n%GPS: $GPGGA,131902.000,0000.0000,N,00000.0000,E,1,05,3.0,0.00,M,,,,0000*31\r\n$GPRMC,131902.000,A,0000.0000,N,00000.0000,E,0.00,000.00,140115,,,A*66\r\n\r\nOK\r\n
[ 13:19:03.285 ] [27:INFO] cmd: ATS89?*47C6
[ 13:19:03.285 ] [27:INFO] res: \r\n00001\r\n\r\nOK\r\n
[ 13:19:03.285 ] [27:INFO] cmd: AT%GPS=30,2,"RMC","GGA"*D90A
[ 13:19:03.295 ] [27:INFO] res: \r\n%GPS: $GPGGA,131903.000,0000.0000,N,00000.0000,E,1,05,3.0,0.00,M,,,,0000*30\r\n$GPRMC,131903.000,A,0000.0000,N,00000.0000,E,0.00,000.00,140115,,,A*67\r\n\r\nOK\r\n
[ 13:19:04.295 ] [27:INFO] cmd: ATS89?*47C6
[ 13:19:04.295 ] [27:INFO] res: \r\n00001\r\n\r\nOK\r\n
[ 13:19:04.295 ] [27:INFO] cmd: AT%GPS=30,2,"RMC","GGA"*D90A
[ 13:19:04.295 ] [27:INFO] res: \r\n%GPS: $GPGGA,131904.000,0000.0000,N,00000.0000,E,1,05,3.0,0.00,M,,,,0000*37\r\n$GPRMC,131904.000,A,0000.0000,N,00000.0000,E,0.00,000.00,140115,,,A*60\r\n\r\nOK\r\n
[ 13:19:05.305 ] [27:INFO] cmd: ATS89?*47C6
[ 13:19:05.305 ] [27:INFO] res: \r\n00001\r\n\r\nOK\r\n
[ 13:19:05.305 ] [27:INFO] cmd: AT%GPS=30,2,"RMC","GGA"*D90A
[ 13:19:05.305 ] [27:INFO] res: \r\n%GPS: $GPGGA,131905.000,0000.0000,N,00000.0000,E,1,05,3.0,0.00,M,,,,0000*36\r\n$GPRMC,131905.000,A,0000.0000,N,00000.0000,E,0.00,000.00,140115,,,A*61\r\n\r\nOK\r\n
[ 13:19:06.325 ] [27:INFO] cmd: ATS89?*47C6
[ 13:19:06.325 ] [27:INFO] res: \r\n00001\r\n\r\nOK\r\n
[ 13:19:06.325 ] [27:INFO] cmd: AT%GPS=30,2,"RMC","GGA"*D90A
[ 13:19:06.335 ] [27:INFO] res: \r\n%GPS: $GPGGA,131906.000,0000.0000,N,00000.0000,E,1,05,3.0,0.00,M,,,,0000*35\r\n$GPRMC,131906.000,A,0000.0000,N,00000.0000,E,0.00,000.00,140115,,,A*62\r\n\r\nOK\r\n
[ 13:19:07.335 ] [27:INFO] cmd: ATS89?*47C6
[ 13:19:07.335 ] [27:INFO] res: \r\n00001\r\n\r\nOK\r\n
[ 13:19:07.335 ] [27:INFO] cmd: AT%GPS=30,2,"RMC","GGA"*D90A
[ 13:19:07.335 ] [27:INFO] res: \r\n%GPS: $GPGGA,131907.000,0000.0000,N,00000.0000,E,1,05,3.0,0.00,M,,,,0000*34\r\n$GPRMC,131907.000,A,0000.0000,N,00000.0000,E,0.00,000.00,140115,,,A*63\r\n\r\nOK\r\n
[ 13:19:08.355 ] [27:INFO] cmd: ATS89?*47C6
[ 13:19:08.365 ] [27:INFO] res: \r\n00001\r\n\r\nOK\r\n
[ 13:19:08.365 ] [27:INFO] cmd: AT%GPS=30,2,"RMC","GGA"*D90A
[ 13:19:08.365 ] [27:INFO] res: \r\n%GPS: $GPGGA,131908.000,0000.0000,N,00000.0000,E,1,05,3.0,0.00,M,,,,0000*3B\r\n$GPRMC,131908.000,A,0000.0000,N,00000.0000,E,0.00,000.00,140115,,,A*6C\r\n\r\nOK\r\n
[ 13:19:09.365 ] [27:INFO] cmd: ATS89?*47C6
[ 13:19:09.365 ] [27:INFO] res: \r\n00001\r\n\r\nOK\r\n
[ 13:19:09.365 ] [27:INFO] cmd: AT%GPS=30,2,"RMC","GGA"*D90A
[ 13:19:09.375 ] [27:INFO] res: \r\n%GPS: $GPGGA,131909.000,0000.0000,N,00000.0000,E,1,05,3.0,0.00,M,,,,0000*3A\r\n$GPRMC,131909.000,A,0000.0000,N,00000.0000,E,0.00,000.00,140115,,,A*6D\r\n\r\nOK\r\n
[ 13:19:10.375 ] [27:INFO] cmd: ATS89?*47C6
[ 13:19:10.385 ] [27:INFO] res: \r\n00001\r\n\r\nOK\r\n
[ 13:19:10.385 ] [27:INFO] cmd: AT%GPS=30,2,"RMC","GGA"*D90A
[ 13:19:10.385 ] [27:INFO] res: \r\n%GPS: $GPGGA,131910.000,0000.0000,N,00000.0000,E,1,05,3.0,0.00,M,,,,0000*32\r\n$GPRMC,131910.000,A,0000.0000,N,00000.0000,E,0.00,000.00,140115,,,A*65\r\n\r\nOK\r\n
[ 13:19:11.395 ] [27:INFO] cmd: ATS89?*47C6
[ 13:19:11.395 ] [27:INFO] res: \r\n00001\r\n\r\nOK\r\n
[ 13:19:11.395 ] [27:INFO] cmd: AT%GPS=30,2,"RMC","GGA"*D90A
[ 13:19:11.395 ] [27:INFO] res: \r\n%GPS: $GPGGA,131911.000,0000.0000,N,00000.0000,E,1,05,3.0,0.00,M,,,,0000*33\r\n$GPRMC,131911.000,A,0000.0000,N,00000.0000,E,0.00,000.00,140115,,,A*64\r\n\r\nOK\r\n
[ 13:19:12.395 ] [115:INFO] Event GpsBlocked state unchanged
[ 13:19:12.395 ] [27:INFO] cmd: AT%EVNT=3,1*BC22
[ 13:19:12.395 ] [27:INFO] res: \r\n%EVNT: 24,16777215,0,442934348,3,1,4,95896,0,0,0,0,0,0,0,0,0,0,0,0,0,0,0,0,0,0,257,0,0,0,0\r\n\r\nOK\r\n
[ 13:19:12.395 ] [115:INFO] Event IdpBlocked state unchanged
[ 13:19:12.405 ] [27:INFO] cmd: ATS89?*47C6
[ 13:19:12.405 ] [27:INFO] res: \r\n00001\r\n\r\nOK\r\n
[ 13:19:12.405 ] [27:INFO] cmd: AT%GPS=30,2,"RMC","GGA"*D90A
[ 13:19:12.405 ] [27:INFO] res: \r\n%GPS: $GPGGA,131912.000,0000.0000,N,00000.0000,E,1,05,3.0,0.00,M,,,,0000*30\r\n$GPRMC,131912.000,A,0000.0000,N,00000.0000,E,0.00,000.00,140115,,,A*67\r\n\r\nOK\r\n
[ 13:19:13.425 ] [27:INFO] cmd: ATS89?*47C6
[ 13:19:13.435 ] [27:INFO] res: \r\n00001\r\n\r\nOK\r\n
[ 13:19:13.435 ] [27:INFO] cmd: AT%GPS=30,2,"RMC","GGA"*D90A
[ 13:19:13.445 ] [27:INFO] res: \r\n%GPS: $GPGGA,131913.000,0000.0000,N,00000.0000,E,1,05,3.0,0.00,M,,,,0000*31\r\n$GPRMC,131913.000,A,0000.0000,N,00000.0000,E,0.00,000.00,140115,,,A*66\r\n\r\nOK\r\n
[ 13:19:14.435 ] [27:INFO] cmd: ATS89?*47C6
[ 13:19:14.435 ] [27:INFO] res: \r\n00001\r\n\r\nOK\r\n
[ 13:19:14.435 ] [27:INFO] cmd: AT%GPS=30,2,"RMC","GGA"*D90A
[ 13:19:14.435 ] [27:INFO] res: \r\n%GPS: $GPGGA,131914.000,0000.0000,N,00000.0000,E,1,05,3.0,0.00,M,,,,0000*36\r\n$GPRMC,131914.000,A,0000.0000,N,00000.0000,E,0.00,000.00,140115,,,A*61\r\n\r\nOK\r\n
[ 13:19:15.445 ] [27:INFO] cmd: ATS89?*47C6
[ 13:19:15.445 ] [27:INFO] res: \r\n00001\r\n\r\nOK\r\n
[ 13:19:15.445 ] [27:INFO] cmd: AT%GPS=30,2,"RMC","GGA"*D90A
[ 13:19:15.445 ] [27:INFO] res: \r\n%GPS: $GPGGA,131915.000,0000.0000,N,00000.0000,E,1,05,3.0,0.00,M,,,,0000*37\r\n$GPRMC,131915.000,A,0000.0000,N,00000.0000,E,0.00,000.00,140115,,,A*60\r\n\r\nOK\r\n
[ 13:19:16.465 ] [27:INFO] cmd: ATS89?*47C6
[ 13:19:16.465 ] [27:INFO] res: \r\n00001\r\n\r\nOK\r\n
[ 13:19:16.465 ] [27:INFO] cmd: AT%GPS=30,2,"RMC","GGA"*D90A
[ 13:19:16.465 ] [27:INFO] res: \r\n%GPS: $GPGGA,131916.000,0000.0000,N,00000.0000,E,1,05,3.0,0.00,M,,,,0000*34\r\n$GPRMC,131916.000,A,0000.0000,N,00000.0000,E,0.00,000.00,140115,,,A*63\r\n\r\nOK\r\n
[ 13:19:17.475 ] [27:INFO] cmd: ATS89?*47C6
[ 13:19:17.475 ] [27:INFO] res: \r\n00001\r\n\r\nOK\r\n
[ 13:19:17.475 ] [27:INFO] cmd: AT%GPS=30,2,"RMC","GGA"*D90A
[ 13:19:17.475 ] [27:INFO] res: \r\n%GPS: $GPGGA,131917.000,0000.0000,N,00000.0000,E,1,05,3.0,0.00,M,,,,0000*35\r\n$GPRMC,131917.000,A,0000.0000,N,00000.0000,E,0.00,000.00,140115,,,A*62\r\n\r\nOK\r\n
[ 13:19:18.495 ] [27:INFO] cmd: ATS89?*47C6
[ 13:19:18.495 ] [27:INFO] res: \r\n00001\r\n\r\nOK\r\n
[ 13:19:18.495 ] [27:INFO] cmd: AT%GPS=30,2,"RMC","GGA"*D90A
[ 13:19:18.495 ] [27:INFO] res: \r\n%GPS: $GPGGA,131918.000,0000.0000,N,00000.0000,E,1,05,3.0,0.00,M,,,,0000*3A\r\n$GPRMC,131918.000,A,0000.0000,N,00000.0000,E,0.00,000.00,140115,,,A*6D\r\n\r\nOK\r\n
[ 13:19:19.505 ] [27:INFO] cmd: ATS89?*47C6
[ 13:19:19.515 ] [27:INFO] res: \r\n00001\r\n\r\nOK\r\n
[ 13:19:19.515 ] [27:INFO] cmd: AT%GPS=30,2,"RMC","GGA"*D90A
[ 13:19:19.525 ] [27:INFO] res: \r\n%GPS: $GPGGA,131919.000,0000.0000,N,00000.0000,E,1,05,3.0,0.00,M,,,,0000*3B\r\n$GPRMC,131919.000,A,0000.0000,N,00000.0000,E,0.00,000.00,140115,,,A*6C\r\n\r\nOK\r\n
[ 13:19:20.515 ] [27:INFO] cmd: ATS89?*47C6
[ 13:19:20.525 ] [27:INFO] res: \r\n00001\r\n\r\nOK\r\n
[ 13:19:20.525 ] [27:INFO] cmd: AT%GPS=30,2,"RMC","GGA"*D90A
[ 13:19:20.525 ] [27:INFO] res: \r\n%GPS: $GPGGA,131920.000,0000.0000,N,00000.0000,E,1,05,3.0,0.00,M,,,,0000*31\r\n$GPRMC,131920.000,A,0000.0000,N,00000.0000,E,0.00,000.00,140115,,,A*66\r\n\r\nOK\r\n
[ 13:19:21.035 ] [18:INFO] queuing RL msg #600 (SIN=115, bits=152)
[ 13:19:21.035 ] [115:INFO] LED 1 is set to  1
[ 13:19:21.045 ] [18:INFO] completed log msg #601 (SIN=115), status=Success
[ 13:19:21.045 ] [115:INFO] Next Report: Standard in 60 seconds
[ 13:19:21.045 ] [18:INFO] sending RL msg #600 trn #1 (SIN=115, bits=152)
[ 13:19:21.045 ] [27:INFO] cmd: AT%MGRT="00000258",3,115,3,FKls2bAAAAAAAAAAWkeUAAA
[ 13:19:21.045 ] [27:INFO] res: \r\nOK\r\n
[ 13:19:21.535 ] [27:INFO] cmd: ATS89?*47C6
[ 13:19:21.535 ] [27:INFO] res: \r\n00001\r\n\r\nOK\r\n
[ 13:19:21.535 ] [27:INFO] cmd: AT%GPS=30,2,"RMC","GGA"*D90A
[ 13:19:21.535 ] [27:INFO] res: \r\n%GPS: $GPGGA,131921.000,0000.0000,N,00000.0000,E,1,05,3.0,0.00,M,,,,0000*30\r\n$GPRMC,131921.000,A,0000.0000,N,00000.0000,E,0.00,000.00,140115,,,A*67\r\n\r\nOK\r\n
[ 13:19:22.545 ] [27:INFO] cmd: ATS89?*47C6
[ 13:19:22.545 ] [27:INFO] res: \r\n00001\r\n\r\nOK\r\n
[ 13:19:22.545 ] [27:INFO] cmd: AT%GPS=30,2,"RMC","GGA"*D90A
[ 13:19:22.555 ] [27:INFO] res: \r\n%GPS: $GPGGA,131922.000,0000.0000,N,00000.0000,E,1,05,3.0,0.00,M,,,,0000*33\r\n$GPRMC,131922.000,A,0000.0000,N,00000.0000,E,0.00,000.00,140115,,,A*64\r\n\r\nOK\r\n
[ 13:19:23.565 ] [27:INFO] cmd: ATS89?*47C6
[ 13:19:23.565 ] [27:INFO] res: \r\n00001\r\n\r\nOK\r\n
[ 13:19:23.565 ] [27:INFO] cmd: AT%GPS=30,2,"RMC","GGA"*D90A
[ 13:19:23.565 ] [27:INFO] res: \r\n%GPS: $GPGGA,131923.000,0000.0000,N,00000.0000,E,1,05,3.0,0.00,M,,,,0000*32\r\n$GPRMC,131923.000,A,0000.0000,N,00000.0000,E,0.00,000.00,140115,,,A*65\r\n\r\nOK\r\n
[ 13:19:24.575 ] [27:INFO] cmd: ATS89?*47C6
[ 13:19:24.575 ] [27:INFO] res: \r\n00001\r\n\r\nOK\r\n
[ 13:19:24.575 ] [27:INFO] cmd: AT%GPS=30,2,"RMC","GGA"*D90A
[ 13:19:24.575 ] [27:INFO] res: \r\n%GPS: $GPGGA,131924.000,0000.0000,N,00000.0000,E,1,05,3.0,0.00,M,,,,0000*35\r\n$GPRMC,131924.000,A,0000.0000,N,00000.0000,E,0.00,000.00,140115,,,A*62\r\n\r\nOK\r\n
[ 13:19:25.585 ] [27:INFO] cmd: ATS89?*47C6
[ 13:19:25.585 ] [27:INFO] res: \r\n00001\r\n\r\nOK\r\n
[ 13:19:25.585 ] [27:INFO] cmd: AT%GPS=30,2,"RMC","GGA"*D90A
[ 13:19:25.585 ] [27:INFO] res: \r\n%GPS: $GPGGA,131925.000,0000.0000,N,00000.0000,E,1,05,3.0,0.00,M,,,,0000*34\r\n$GPRMC,131925.000,A,0000.0000,N,00000.0000,E,0.00,000.00,140115,,,A*63\r\n\r\nOK\r\n
[ 13:19:26.605 ] [27:INFO] cmd: ATS89?*47C6
[ 13:19:26.605 ] [27:INFO] res: \r\n00005\r\n\r\nOK\r\n
[ 13:19:26.605 ] [27:INFO] cmd: AT%GPS=30,2,"RMC","GGA"*D90A
[ 13:19:26.615 ] [27:INFO] res: \r\n%GPS: $GPGGA,131926.000,0000.0000,N,00000.0000,E,1,05,3.0,0.00,M,,,,0000*37\r\n$GPRMC,131926.000,A,0000.0000,N,00000.0000,E,0.00,000.00,140115,,,A*60\r\n\r\nOK\r\n
[ 13:19:26.615 ] [27:INFO] cmd: AT%MGRS*04F9
[ 13:19:26.625 ] [27:INFO] res: \r\n%MGRS: "00000258",313.1,3,115,6,19,19\r\n\r\nOK\r\n
[ 13:19:26.625 ] [18:INFO] completed RL msg #600 (SIN=115), status=Success
[ 13:19:27.615 ] [27:INFO] cmd: ATS89?*47C6
[ 13:19:27.615 ] [27:INFO] res: \r\n00001\r\n\r\nOK\r\n
[ 13:19:27.615 ] [27:INFO] cmd: AT%GPS=30,2,"RMC","GGA"*D90A
[ 13:19:27.615 ] [27:INFO] res: \r\n%GPS: $GPGGA,131927.000,0000.0000,N,00000.0000,E,1,05,3.0,0.00,M,,,,0000*36\r\n$GPRMC,131927.000,A,0000.0000,N,00000.0000,E,0.00,000.00,140115,,,A*61\r\n\r\nOK\r\n
[ 13:19:28.635 ] [27:INFO] cmd: ATS89?*47C6
[ 13:19:28.635 ] [27:INFO] res: \r\n00001\r\n\r\nOK\r\n
[ 13:19:28.635 ] [27:INFO] cmd: AT%GPS=30,2,"RMC","GGA"*D90A
[ 13:19:28.635 ] [27:INFO] res: \r\n%GPS: $GPGGA,131928.000,0000.0000,N,00000.0000,E,1,05,3.0,0.00,M,,,,0000*39\r\n$GPRMC,131928.000,A,0000.0000,N,00000.0000,E,0.00,000.00,140115,,,A*6E\r\n\r\nOK\r\n
[ 13:19:29.645 ] [27:INFO] cmd: ATS89?*47C6
[ 13:19:29.645 ] [27:INFO] res: \r\n00001\r\n\r\nOK\r\n
[ 13:19:29.645 ] [27:INFO] cmd: AT%GPS=30,2,"RMC","GGA"*D90A
[ 13:19:29.655 ] [27:INFO] res: \r\n%GPS: $GPGGA,131929.000,0000.0000,N,00000.0000,E,1,05,3.0,0.00,M,,,,0000*38\r\n$GPRMC,131929.000,A,0000.0000,N,00000.0000,E,0.00,000.00,140115,,,A*6F\r\n\r\nOK\r\n
[ 13:19:30.655 ] [27:INFO] cmd: ATS89?*47C6
[ 13:19:30.655 ] [27:INFO] res: \r\n00001\r\n\r\nOK\r\n
[ 13:19:30.655 ] [27:INFO] cmd: AT%GPS=30,2,"RMC","GGA"*D90A
[ 13:19:30.655 ] [27:INFO] res: \r\n%GPS: $GPGGA,131930.000,0000.0000,N,00000.0000,E,1,05,3.0,0.00,M,,,,0000*30\r\n$GPRMC,131930.000,A,0000.0000,N,00000.0000,E,0.00,000.00,140115,,,A*67\r\n\r\nOK\r\n
[ 13:19:30.965 ] [115:INFO] LED 1 is set to  3
[ 13:19:31.675 ] [27:INFO] cmd: ATS89?*47C6
[ 13:19:31.685 ] [27:INFO] res: \r\n00001\r\n\r\nOK\r\n
[ 13:19:31.685 ] [27:INFO] cmd: AT%GPS=30,2,"RMC","GGA"*D90A
[ 13:19:31.695 ] [27:INFO] res: \r\n%GPS: $GPGGA,131931.000,0000.0000,N,00000.0000,E,1,05,3.0,0.00,M,,,,0000*31\r\n$GPRMC,131931.000,A,0000.0000,N,00000.0000,E,0.00,000.00,140115,,,A*66\r\n\r\nOK\r\n
[ 13:19:32.685 ] [27:INFO] cmd: ATS89?*47C6
[ 13:19:32.685 ] [27:INFO] res: \r\n00001\r\n\r\nOK\r\n
[ 13:19:32.685 ] [27:INFO] cmd: AT%GPS=30,2,"RMC","GGA"*D90A
[ 13:19:32.685 ] [27:INFO] res: \r\n%GPS: $GPGGA,131932.000,0000.0000,N,00000.0000,E,1,05,3.0,0.00,M,,,,0000*32\r\n$GPRMC,131932.000,A,0000.0000,N,00000.0000,E,0.00,000.00,140115,,,A*65\r\n\r\nOK\r\n
[ 13:19:33.705 ] [27:INFO] cmd: ATS89?*47C6
[ 13:19:33.705 ] [27:INFO] res: \r\n00001\r\n\r\nOK\r\n
[ 13:19:33.705 ] [27:INFO] cmd: AT%GPS=30,2,"RMC","GGA"*D90A
[ 13:19:33.705 ] [27:INFO] res: \r\n%GPS: $GPGGA,131933.000,0000.0000,N,00000.0000,E,1,05,3.0,0.00,M,,,,0000*33\r\n$GPRMC,131933.000,A,0000.0000,N,00000.0000,E,0.00,000.00,140115,,,A*64\r\n\r\nOK\r\n
[ 13:19:34.715 ] [27:INFO] cmd: ATS89?*47C6
[ 13:19:34.715 ] [27:INFO] res: \r\n00001\r\n\r\nOK\r\n
[ 13:19:34.715 ] [27:INFO] cmd: AT%GPS=30,2,"RMC","GGA"*D90A
[ 13:19:34.715 ] [27:INFO] res: \r\n%GPS: $GPGGA,131934.000,0000.0000,N,00000.0000,E,1,05,3.0,0.00,M,,,,0000*34\r\n$GPRMC,131934.000,A,0000.0000,N,00000.0000,E,0.00,000.00,140115,,,A*63\r\n\r\nOK\r\n
[ 13:19:35.735 ] [27:INFO] cmd: ATS89?*47C6
[ 13:19:35.735 ] [27:INFO] res: \r\n00001\r\n\r\nOK\r\n
[ 13:19:35.735 ] [27:INFO] cmd: AT%GPS=30,2,"RMC","GGA"*D90A
[ 13:19:35.745 ] [27:INFO] res: \r\n%GPS: $GPGGA,131935.000,0000.0000,N,00000.0000,E,1,05,3.0,0.00,M,,,,0000*35\r\n$GPRMC,131935.000,A,0000.0000,N,00000.0000,E,0.00,000.00,140115,,,A*62\r\n\r\nOK\r\n
[ 13:19:36.745 ] [27:INFO] cmd: ATS89?*47C6
[ 13:19:36.745 ] [27:INFO] res: \r\n00001\r\n\r\nOK\r\n
[ 13:19:36.745 ] [27:INFO] cmd: AT%GPS=30,2,"RMC","GGA"*D90A
[ 13:19:36.745 ] [27:INFO] res: \r\n%GPS: $GPGGA,131936.000,0000.0000,N,00000.0000,E,1,05,3.0,0.00,M,,,,0000*36\r\n$GPRMC,131936.000,A,0000.0000,N,00000.0000,E,0.00,000.00,140115,,,A*61\r\n\r\nOK\r\n
[ 13:19:37.755 ] [27:INFO] cmd: ATS89?*47C6
[ 13:19:37.755 ] [27:INFO] res: \r\n00001\r\n\r\nOK\r\n
[ 13:19:37.755 ] [27:INFO] cmd: AT%GPS=30,2,"RMC","GGA"*D90A
[ 13:19:37.755 ] [27:INFO] res: \r\n%GPS: $GPGGA,131937.000,0000.0000,N,00000.0000,E,1,05,3.0,0.00,M,,,,0000*37\r\n$GPRMC,131937.000,A,0000.0000,N,00000.0000,E,0.00,000.00,140115,,,A*60\r\n\r\nOK\r\n
[ 13:19:38.775 ] [27:INFO] cmd: ATS89?*47C6
[ 13:19:38.775 ] [27:INFO] res: \r\n00001\r\n\r\nOK\r\n
[ 13:19:38.785 ] [27:INFO] cmd: AT%GPS=30,2,"RMC","GGA"*D90A
[ 13:19:38.795 ] [27:INFO] res: \r\n%GPS: $GPGGA,131938.000,0000.0000,N,00000.0000,E,1,05,3.0,0.00,M,,,,0000*38\r\n$GPRMC,131938.000,A,0000.0000,N,00000.0000,E,0.00,000.00,140115,,,A*6F\r\n\r\nOK\r\n
[ 13:19:39.785 ] [27:INFO] cmd: ATS89?*47C6
[ 13:19:39.785 ] [27:INFO] res: \r\n00001\r\n\r\nOK\r\n
[ 13:19:39.785 ] [27:INFO] cmd: AT%GPS=30,2,"RMC","GGA"*D90A
[ 13:19:39.785 ] [27:INFO] res: \r\n%GPS: $GPGGA,131939.000,0000.0000,N,00000.0000,E,1,05,3.0,0.00,M,,,,0000*39\r\n$GPRMC,131939.000,A,0000.0000,N,00000.0000,E,0.00,000.00,140115,,,A*6E\r\n\r\nOK\r\n
[ 13:19:40.805 ] [27:INFO] cmd: ATS89?*47C6
[ 13:19:40.805 ] [27:INFO] res: \r\n00001\r\n\r\nOK\r\n
[ 13:19:40.805 ] [27:INFO] cmd: AT%GPS=30,2,"RMC","GGA"*D90A
[ 13:19:40.805 ] [27:INFO] res: \r\n%GPS: $GPGGA,131940.000,0000.0000,N,00000.0000,E,1,05,3.0,0.00,M,,,,0000*37\r\n$GPRMC,131940.000,A,0000.0000,N,00000.0000,E,0.00,000.00,140115,,,A*60\r\n\r\nOK\r\n
[ 13:19:41.815 ] [27:INFO] cmd: ATS89?*47C6
[ 13:19:41.815 ] [27:INFO] res: \r\n00001\r\n\r\nOK\r\n
[ 13:19:41.815 ] [27:INFO] cmd: AT%GPS=30,2,"RMC","GGA"*D90A
[ 13:19:41.815 ] [27:INFO] res: \r\n%GPS: $GPGGA,131941.000,0000.0000,N,00000.0000,E,1,05,3.0,0.00,M,,,,0000*36\r\n$GPRMC,131941.000,A,0000.0000,N,00000.0000,E,0.00,000.00,140115,,,A*61\r\n\r\nOK\r\n
[ 13:19:42.825 ] [27:INFO] cmd: ATS89?*47C6
