$GPRMC,084754.000,A,0000.0000,N,00000.0000,E,0.00,000.00,060515,,,A*63\r\n\r\nOK\r\n
[ 08:47:56.387 ] [27:INFO] cmd: ATS89?*47C6
[ 08:47:56.389 ] [27:INFO] res: \r\n00001\r\n\r\nOK\r\n
[ 08:47:56.390 ] [27:INFO] cmd: AT%GPS=30,2,"RMC","GGA"*D90A
[ 08:47:56.393 ] [27:INFO] res: \r\n%GPS: $GPGGA,084756.000,0000.0000,N,00000.0000,E,1,05,3.0,0.00,M,,,,0000*31\r\n$GPRMC,084756.000,A,0000.0000,N,00000.0000,E,0.00,000.00,060515,,,A*61\r\n\r\nOK\r\n
[ 08:47:58.295 ] [27:INFO] cmd: AT%EVNT=3,1*BC22
[ 08:47:58.301 ] [27:INFO] res: \r\n%EVNT: 24,16777215,0,452594876,3,1,4,63352,0,0,0,0,0,0,0,0,0,0,0,0,0,0,0,0,0,0,257,0,0,0,0\r\n\r\nOK\r\n
[ 08:47:58.302 ] [115:INFO] Debouncing GpsBlocked=true for 1s
[ 08:47:58.302 ] [27:INFO] cmd: AT%EVNT=3,1*BC22
[ 08:47:58.307 ] [27:INFO] res: \r\n%EVNT: 24,16777215,0,452594876,3,1,4,63352,0,0,0,0,0,0,0,0,0,0,0,0,0,0,0,0,0,0,257,0,0,0,0\r\n\r\nOK\r\n
[ 08:47:58.400 ] [27:INFO] cmd: ATS89?*47C6
[ 08:47:58.403 ] [27:INFO] res: \r\n00001\r\n\r\nOK\r\n
[ 08:47:58.403 ] [27:INFO] cmd: AT%GPS=30,2,"RMC","GGA"*D90A
[ 08:47:58.407 ] [27:INFO] res: \r\n%GPS: $GPGGA,084758.000,0000.0000,N,00000.0000,E,1,05,3.0,0.00,M,,,,0000*3F\r\n$GPRMC,084758.000,A,0000.0000,N,00000.0000,E,0.00,000.00,060515,,,A*6F\r\n\r\nOK\r\n
[ 08:48:00.413 ] [27:INFO] cmd: ATS89?*47C6
[ 08:48:00.415 ] [27:INFO] res: \r\n00001\r\n\r\nOK\r\n
[ 08:48:00.416 ] [27:INFO] cmd: AT%GPS=30,2,"RMC","GGA"*D90A
[ 08:48:00.420 ] [27:INFO] res: \r\n%GPS: $GPGGA,084800.000,0000.0000,N,00000.0000,E,1,05,3.0,0.00,M,,,,0000*3D\r\n$GPRMC,084800.000,A,0000.0000,N,00000.0000,E,0.00,000.00,060515,,,A*6D\r\n\r\nOK\r\n
[ 08:48:02.424 ] [27:INFO] cmd: ATS89?*47C6
[ 08:48:02.426 ] [27:INFO] res: \r\n00001\r\n\r\nOK\r\n
[ 08:48:02.427 ] [27:INFO] cmd: AT%GPS=30,2,"RMC","GGA"*D90A
[ 08:48:02.430 ] [27:INFO] res: \r\n%GPS: $GPGGA,084802.000,0000.0000,N,00000.0000,E,1,05,3.0,0.00,M,,,,0000*3F\r\n$GPRMC,084802.000,A,0000.0000,N,00000.0000,E,0.00,000.00,060515,,,A*6F\r\n\r\nOK\r\n
[ 08:48:04.437 ] [27:INFO] cmd: ATS89?*47C6
[ 08:48:04.440 ] [27:INFO] res: \r\n00001\r\n\r\nOK\r\n
[ 08:48:04.440 ] [27:INFO] cmd: AT%GPS=30,2,"RMC","GGA"*D90A
[ 08:48:04.443 ] [27:INFO] res: \r\n%GPS: $GPGGA,084804.000,0000.0000,N,00000.0000,E,1,05,3.0,0.00,M,,,,0000*39\r\n$GPRMC,084804.000,A,0000.0000,N,00000.0000,E,0.00,000.00,060515,,,A*69\r\n\r\nOK\r\n
[ 08:48:06.449 ] [27:INFO] cmd: ATS89?*47C6
[ 08:48:06.452 ] [27:INFO] res: \r\n00001\r\n\r\nOK\r\n
[ 08:48:06.452 ] [27:INFO] cmd: AT%GPS=30,2,"RMC","GGA"*D90A
[ 08:48:06.459 ] [27:INFO] res: \r\n%GPS: $GPGGA,084806.000,0000.0000,N,00000.0000,E,1,05,3.0,0.00,M,,,,0000*3B\r\n$GPRMC,084806.000,A,0000.0000,N,00000.0000,E,0.00,000.00,060515,,,A*6B\r\n\r\nOK\r\n
[ 08:48:08.262 ] [27:INFO] cmd: AT%EVNT=3,1*BC22
[ 08:48:08.266 ] [27:INFO] res: \r\n%EVNT: 24,16777215,0,452594886,3,1,4,63372,0,0,0,0,0,0,0,0,0,0,0,0,0,0,0,0,0,0,257,0,0,0,0\r\n\r\nOK\r\n
[ 08:48:08.268 ] [115:INFO] Debouncing GpsBlocked=true for 1s
[ 08:48:08.268 ] [27:INFO] cmd: AT%EVNT=3,1*BC22
[ 08:48:08.273 ] [27:INFO] res: \r\n%EVNT: 24,16777215,0,452594886,3,1,4,63372,0,0,0,0,0,0,0,0,0,0,0,0,0,0,0,0,0,0,257,0,0,0,0\r\n\r\nOK\r\n
[ 08:48:08.462 ] [27:INFO] cmd: ATS89?*47C6
[ 08:48:08.464 ] [27:INFO] res: \r\n00001\r\n\r\nOK\r\n
[ 08:48:08.465 ] [27:INFO] cmd: AT%GPS=30,2,"RMC","GGA"*D90A
[ 08:48:08.468 ] [27:INFO] res: \r\n%GPS: $GPGGA,084808.000,0000.0000,N,00000.0000,E,1,05,3.0,0.00,M,,,,0000*35\r\n$GPRMC,084808.000,A,0000.0000,N,00000.0000,E,0.00,000.00,060515,,,A*65\r\n\r\nOK\r\n
[ 08:48:10.476 ] [27:INFO] cmd: ATS89?*47C6
[ 08:48:10.478 ] [27:INFO] res: \r\n00001\r\n\r\nOK\r\n
[ 08:48:10.479 ] [27:INFO] cmd: AT%GPS=30,2,"RMC","GGA"*D90A
[ 08:48:10.482 ] [27:INFO] res: \r\n%GPS: $GPGGA,084810.000,0000.0000,N,00000.0000,E,1,05,3.0,0.00,M,,,,0000*3C\r\n$GPRMC,084810.000,A,0000.0000,N,00000.0000,E,0.00,000.00,060515,,,A*6C\r\n\r\nOK\r\n
[ 08:48:12.486 ] [27:INFO] cmd: ATS89?*47C6
[ 08:48:12.489 ] [27:INFO] res: \r\n00001\r\n\r\nOK\r\n
[ 08:48:12.489 ] [27:INFO] cmd: AT%GPS=30,2,"RMC","GGA"*D90A
[ 08:48:12.493 ] [27:INFO] res: \r\n%GPS: $GPGGA,084812.000,0000.0000,N,00000.0000,E,1,05,3.0,0.00,M,,,,0000*3E\r\n$GPRMC,084812.000,A,0000.0000,N,00000.0000,E,0.00,000.00,060515,,,A*6E\r\n\r\nOK\r\n
[ 08:48:14.498 ] [27:INFO] cmd: ATS89?*47C6
[ 08:48:14.500 ] [27:INFO] res: \r\n00001\r\n\r\nOK\r\n
[ 08:48:14.501 ] [27:INFO] cmd: AT%GPS=30,2,"RMC","GGA"*D90A
[ 08:48:14.505 ] [27:INFO] res: \r\n%GPS: $GPGGA,084814.000,0000.0000,N,00000.0000,E,1,05,3.0,0.00,M,,,,0000*38\r\n$GPRMC,084814.000,A,0000.0000,N,00000.0000,E,0.00,000.00,060515,,,A*68\r\n\r\nOK\r\n
[ 08:48:15.087 ] [27:INFO] cmd: ATS89?*47C6
[ 08:48:15.089 ] [27:INFO] res: \r\n00002\r\n\r\nOK\r\n
[ 08:48:15.089 ] [27:INFO] cmd: AT%MGFN*08D2
[ 08:48:15.092 ] [27:INFO] res: \r\n%MGFN: "FM10.01",10.01,0,16,2,11,11\r\n\r\nOK\r\n
[ 08:48:15.093 ] [27:INFO] cmd: AT%MGFG="FM10.01",3*3D98
[ 08:48:15.095 ] [27:INFO] res: \r\n%MGFG: "FM10.01",10.01,0,16,2,10,3,CQFzAgJACBoBgA==\r\n\r\nOK\r\n
[ 08:48:15.102 ] [18:INFO] sending decoded message from transport=1 to SIN=16
[ 08:48:16.512 ] [27:INFO] cmd: ATS89?*47C6
[ 08:48:16.515 ] [27:INFO] res: \r\n00001\r\n\r\nOK\r\n
[ 08:48:16.516 ] [27:INFO] cmd: AT%GPS=30,2,"RMC","GGA"*D90A
[ 08:48:16.521 ] [27:INFO] res: \r\n%GPS: $GPGGA,084816.000,0000.0000,N,00000.0000,E,1,05,3.0,0.00,M,,,,0000*3A\r\n$GPRMC,084816.000,A,0000.0000,N,00000.0000,E,0.00,000.00,060515,,,A*6A\r\n\r\nOK\r\n
[ 08:48:18.224 ] [27:INFO] cmd: AT%EVNT=3,1*BC22
[ 08:48:18.228 ] [27:INFO] res: \r\n%EVNT: 24,16777215,0,452594896,3,1,4,63392,0,0,0,0,0,0,0,0,0,0,0,0,0,0,0,0,0,0,257,0,0,0,0\r\n\r\nOK\r\n
[ 08:48:18.229 ] [115:INFO] Debouncing GpsBlocked=true for 1s
[ 08:48:18.230 ] [27:INFO] cmd: AT%EVNT=3,1*BC22
[ 08:48:18.237 ] [27:INFO] res: \r\n%EVNT: 24,16777215,0,452594896,3,1,4,63392,0,0,0,0,0,0,0,0,0,0,0,0,0,0,0,0,0,0,257,0,0,0,0\r\n\r\nOK\r\n
[ 08:48:18.523 ] [27:INFO] cmd: ATS89?*47C6
[ 08:48:18.526 ] [27:INFO] res: \r\n00001\r\n\r\nOK\r\n
[ 08:48:18.526 ] [27:INFO] cmd: AT%GPS=30,2,"RMC","GGA"*D90A
[ 08:48:18.529 ] [27:INFO] res: \r\n%GPS: $GPGGA,084818.000,0000.0000,N,00000.0000,E,1,05,3.0,0.00,M,,,,0000*34\r\n$GPRMC,084818.000,A,0000.0000,N,00000.0000,E,0.00,000.00,060515,,,A*64\r\n\r\nOK\r\n
[ 08:48:20.538 ] [27:INFO] cmd: ATS89?*47C6
[ 08:48:20.540 ] [27:INFO] res: \r\n00001\r\n\r\nOK\r\n
[ 08:48:20.541 ] [27:INFO] cmd: AT%GPS=30,2,"RMC","GGA"*D90A
[ 08:48:20.544 ] [27:INFO] res: \r\n%GPS: $GPGGA,084820.000,0000.0000,N,00000.0000,E,1,05,3.0,0.00,M,,,,0000*3F\r\n$GPRMC,084820.000,A,0000.0000,N,00000.0000,E,0.00,000.00,060515,,,A*6F\r\n\r\nOK\r\n
[ 08:48:22.548 ] [27:INFO] cmd: ATS89?*47C6
[ 08:48:22.550 ] [27:INFO] res: \r\n00001\r\n\r\nOK\r\n
[ 08:48:22.550 ] [27:INFO] cmd: AT%GPS=30,2,"RMC","GGA"*D90A
[ 08:48:22.554 ] [27:INFO] res: \r\n%GPS: $GPGGA,084822.000,0000.0000,N,00000.0000,E,1,05,3.0,0.00,M,,,,0000*3D\r\n$GPRMC,084822.000,A,0000.0000,N,00000.0000,E,0.00,000.00,060515,,,A*6D\r\n\r\nOK\r\n
[ 08:48:23.156 ] [27:INFO] cmd: AT%EVNT=3,1*BC22
[ 08:48:23.158 ] [27:INFO] res: \r\n%EVNT: 24,16777215,0,452594901,3,1,4,63402,0,0,0,0,0,0,0,0,0,0,0,0,0,0,0,0,0,0,257,0,0,0,0\r\n\r\nOK\r\n
[ 08:48:24.560 ] [27:INFO] cmd: ATS89?*47C6
[ 08:48:24.562 ] [27:INFO] res: \r\n00001\r\n\r\nOK\r\n
[ 08:48:24.563 ] [27:INFO] cmd: AT%GPS=30,2,"RMC","GGA"*D90A
[ 08:48:24.566 ] [27:INFO] res: \r\n%GPS: $GPGGA,084824.000,0000.0000,N,00000.0000,E,1,05,3.0,0.00,M,,,,0000*3B\r\n$GPRMC,084824.000,A,0000.0000,N,00000.0000,E,0.00,000.00,060515,,,A*6B\r\n\r\nOK\r\n
[ 08:48:26.574 ] [27:INFO] cmd: ATS89?*47C6
[ 08:48:26.577 ] [27:INFO] res: \r\n00001\r\n\r\nOK\r\n
[ 08:48:26.577 ] [27:INFO] cmd: AT%GPS=30,2,"RMC","GGA"*D90A
[ 08:48:26.581 ] [27:INFO] res: \r\n%GPS: $GPGGA,084826.000,0000.0000,N,00000.0000,E,1,05,3.0,0.00,M,,,,0000*39\r\n$GPRMC,084826.000,A,0000.0000,N,00000.0000,E,0.00,000.00,060515,,,A*69\r\n\r\nOK\r\n
[ 08:48:28.183 ] [115:INFO] Report 1. Next Std 60s Acc 60s
[ 08:48:28.190 ] [18:INFO] queuing RL msg #8 (SIN=115, bits=152)
[ 08:48:28.191 ] [18:INFO] sending RL msg #8 trn #1 (SIN=115, bits=152)
[ 08:48:28.192 ] [27:INFO] cmd: AT%MGRT="00000008",3,115,3,FaqTqrQAAAAAAAAAWkeUAAA
[ 08:48:28.196 ] [27:INFO] res: \r\nOK\r\n
[ 08:48:28.197 ] [27:INFO] cmd: AT%EVNT=3,1*BC22
[ 08:48:28.201 ] [27:INFO] res: \r\n%EVNT: 24,16777215,0,452594906,3,1,4,63412,0,0,0,0,0,0,0,0,0,0,0,0,0,0,0,0,0,0,257,0,0,0,0\r\n\r\nOK\r\n
[ 08:48:28.202 ] [115:INFO] Debouncing GpsBlocked=true for 1s
[ 08:48:28.203 ] [27:INFO] cmd: AT%EVNT=3,1*BC22
[ 08:48:28.204 ] [27:INFO] res: \r\n%EVNT: 24,16777215,0,452594906,3,1,4,63412,0,0,0,0,0,0,0,0,0,0,0,0,0,0,0,0,0,0,257,0,0,0,0\r\n\r\nOK\r\n
[ 08:48:28.586 ] [27:INFO] cmd: ATS89?*47C6
[ 08:48:28.589 ] [27:INFO] res: \r\n00001\r\n\r\nOK\r\n
[ 08:48:28.589 ] [27:INFO] cmd: AT%GPS=30,2,"RMC","GGA"*D90A
[ 08:48:28.596 ] [27:INFO] res: \r\n%GPS: $GPGGA,084828.000,0000.0000,N,00000.0000,E,1,05,3.0,0.00,M,,,,0000*37\r\n$GPRMC,084828.000,A,0000.0000,N,00000.0000,E,0.00,000.00,060515,,,A*67\r\n\r\nOK\r\n
[ 08:48:30.600 ] [27:INFO] cmd: ATS89?*47C6
[ 08:48:30.603 ] [27:INFO] res: \r\n00001\r\n\r\nOK\r\n
[ 08:48:30.603 ] [27:INFO] cmd: AT%GPS=30,2,"RMC","GGA"*D90A
[ 08:48:30.607 ] [27:INFO] res: \r\n%GPS: $GPGGA,084830.000,0000.0000,N,00000.0000,E,1,05,3.0,0.00,M,,,,0000*3E\r\n$GPRMC,084830.000,A,0000.0000,N,00000.0000,E,0.00,000.00,060515,,,A*6E\r\n\r\nOK\r\n
[ 08:48:32.610 ] [27:INFO] cmd: ATS89?*47C6
[ 08:48:32.610 ] [27:INFO] res: \r\n00001\r\n\r\nOK\r\n
[ 08:48:32.610 ] [27:INFO] cmd: AT%GPS=30,2,"RMC","GGA"*D90A
[ 08:48:32.612 ] [27:INFO] res: \r\n%GPS: $GPGGA,084832.000,0000.0000,N,00000.0000,E,1,05,3.0,0.00,M,,,,0000*3C\r\n$GPRMC,084832.000,A,0000.0000,N,00000.0000,E,0.00,000.00,060515,,,A*6C\r\n\r\nOK\r\n
[ 08:48:33.312 ] [27:INFO] cmd: ATS89?*47C6
[ 08:48:33.314 ] [27:INFO] res: \r\n00004\r\n\r\nOK\r\n
[ 08:48:33.315 ] [27:INFO] cmd: AT%MGRS*04F9
[ 08:48:33.318 ] [27:INFO] res: \r\n%MGRS: "00000008",40.1,3,115,6,19,19\r\n\r\nOK\r\n
[ 08:48:33.319 ] [18:INFO] completed RL msg #8 (SIN=115), status=Success
[ 08:48:34.623 ] [27:INFO] cmd: ATS89?*47C6
[ 08:48:34.623 ] [27:INFO] res: \r\n00001\r\n\r\nOK\r\n
[ 08:48:34.623 ] [27:INFO] cmd: AT%GPS=30,2,"RMC","GGA"*D90A
[ 08:48:34.624 ] [27:INFO] res: \r\n%GPS: $GPGGA,084834.000,0000.0000,N,00000.0000,E,1,05,3.0,0.00,M,,,,0000*3A\r\n$GPRMC,084834.000,A,0000.0000,N,00000.0000,E,0.00,000.00,060515,,,A*6A\r\n\r\nOK\r\n
[ 08:48:36.636 ] [27:INFO] cmd: ATS89?*47C6
[ 08:48:36.638 ] [27:INFO] res: \r\n00001\r\n\r\nOK\r\n
[ 08:48:36.638 ] [27:INFO] cmd: AT%GPS=30,2,"RMC","GGA"*D90A
[ 08:48:36.642 ] [27:INFO] res: \r\n%GPS: $GPGGA,084836.000,0000.0000,N,00000.0000,E,1,05,3.0,0.00,M,,,,0000*38\r\n$GPRMC,084836.000,A,0000.0000,N,00000.0000,E,0.00,000.00,060515,,,A*68\r\n\r\nOK\r\n
[ 08:48:38.148 ] [27:INFO] cmd: AT%EVNT=3,1*BC22
[ 08:48:38.149 ] [27:INFO] res: \r\n%EVNT: 24,16777215,0,452594916,3,1,4,63432,0,0,0,0,0,0,0,0,0,0,0,0,0,0,0,0,0,0,257,0,0,0,0\r\n\r\nOK\r\n
[ 08:48:38.150 ] [115:INFO] Debouncing GpsBlocked=true for 1s
[ 08:48:38.150 ] [27:INFO] cmd: AT%EVNT=3,1*BC22
[ 08:48:38.152 ] [27:INFO] res: \r\n%EVNT: 24,16777215,0,452594916,3,1,4,63432,0,0,0,0,0,0,0,0,0,0,0,0,0,0,0,0,0,0,257,0,0,0,0\r\n\r\nOK\r\n
[ 08:48:38.648 ] [27:INFO] cmd: ATS89?*47C6
[ 08:48:38.650 ] [27:INFO] res: \r\n00001\r\n\r\nOK\r\n
[ 08:48:38.650 ] [27:INFO] cmd: AT%GPS=30,2,"RMC","GGA"*D90A
[ 08:48:38.653 ] [27:INFO] res: \r\n%GPS: $GPGGA,084838.000,0000.0000,N,00000.0000,E,1,05,3.0,0.00,M,,,,0000*36\r\n$GPRMC,084838.000,A,0000.0000,N,00000.0000,E,0.00,000.00,060515,,,A*66\r\n\r\nOK\r\n
[ 08:48:40.661 ] [27:INFO] cmd: ATS89?*47C6
[ 08:48:40.662 ] [27:INFO] res: \r\n00001\r\n\r\nOK\r\n
[ 08:48:40.663 ] [27:INFO] cmd: AT%GPS=30,2,"RMC","GGA"*D90A
[ 08:48:40.666 ] [27:INFO] res: \r\n%GPS: $GPGGA,084840.000,0000.0000,N,00000.0000,E,1,05,3.0,0.00,M,,,,0000*39\r\n$GPRMC,084840.000,A,0000.0000,N,00000.0000,E,0.00,000.00,060515,,,A*69\r\n\r\nOK\r\n
[ 08:48:42.674 ] [27:INFO] cmd: ATS89?*47C6
[ 08:48:42.679 ] [27:INFO] res: \r\n00001\r\n\r\nOK\r\n
[ 08:48:42.679 ] [27:INFO] cmd: AT%GPS=30,2,"RMC","GGA"*D90A
[ 08:48:42.683 ] [27:INFO] res: \r\n%GPS: $GPGGA,084842.000,0000.0000,N,00000.0000,E,1,05,3.0,0.00,M,,,,0000*3B\r\n$GPRMC,084842.000,A,0000.0000,N,00000.0000,E,0.00,000.00,060515,,,A*6B\r\n\r\nOK\r\n
[ 08:48:44.685 ] [27:INFO] cmd: ATS89?*47C6
[ 08:48:44.687 ] [27:INFO] res: \r\n00001\r\n\r\nOK\r\n
[ 08:48:44.687 ] [27:INFO] cmd: AT%GPS=30,2,"RMC","GGA"*D90A
[ 08:48:44.694 ] [27:INFO] res: \r\n%GPS: $GPGGA,084844.000,0000.0000,N,00000.0000,E,1,05,3.0,0.00,M,,,,0000*3D\r\n$GPRMC,084844.000,A,0000.0000,N,00000.0000,E,0.00,000.00,060515,,,A*6D\r\n\r\nOK\r\n
[ 08:48:46.697 ] [27:INFO] cmd: ATS89?*47C6
[ 08:48:46.700 ] [27:INFO] res: \r\n00001\r\n\r\nOK\r\n
[ 08:48:46.700 ] [27:INFO] cmd: AT%GPS=30,2,"RMC","GGA"*D90A
[ 08:48:46.706 ] [27:INFO] res: \r\n%GPS: $GPGGA,084846.000,0000.0000,N,00000.0000,E,1,05,3.0,0.00,M,,,,0000*3F\r\n$GPRMC,084846.000,A,0000.0000,N,00000.0000,E,0.00,000.00,060515,,,A*6F\r\n\r\nOK\r\n
[ 08:48:48.109 ] [27:INFO] cmd: AT%EVNT=3,1*BC22
[ 08:48:48.112 ] [27:INFO] res: \r\n%EVNT: 24,16777215,0,452594926,3,1,4,63452,0,0,0,0,0,0,0,0,0,0,0,0,0,0,0,0,0,0,257,0,0,0,0\r\n\r\nOK\r\n
[ 08:48:48.114 ] [115:INFO] Debouncing GpsBlocked=true for 1s
[ 08:48:48.114 ] [27:INFO] cmd: AT%EVNT=3,1*BC22
[ 08:48:48.118 ] [27:INFO] res: \r\n%EVNT: 24,16777215,0,452594926,3,1,4,63452,0,0,0,0,0,0,0,0,0,0,0,0,0,0,0,0,0,0,257,0,0,0,0\r\n\r\nOK\r\n
[ 08:48:48.710 ] [27:INFO] cmd: ATS89?*47C6
[ 08:48:48.719 ] [27:INFO] res: \r\n00001\r\n\r\nOK\r\n
[ 08:48:48.719 ] [27:INFO] cmd: AT%GPS=30,2,"RMC","GGA"*D90A
[ 08:48:48.723 ] [27:INFO] res: \r\n%GPS: $GPGGA,084848.000,0000.0000,N,00000.0000,E,1,05,3.0,0.00,M,,,,0000*31\r\n$GPRMC,084848.000,A,0000.0000,N,00000.0000,E,0.00,000.00,060515,,,A*61\r\n\r\nOK\r\n
[ 08:48:50.724 ] [27:INFO] cmd: ATS89?*47C6
[ 08:48:50.726 ] [27:INFO] res: \r\n00001\r\n\r\nOK\r\n
[ 08:48:50.726 ] [27:INFO] cmd: AT%GPS=30,2,"RMC","GGA"*D90A
[ 08:48:50.730 ] [27:INFO] res: \r\n%GPS: $GPGGA,084850.000,0000.0000,N,00000.0000,E,1,05,3.0,0.00,M,,,,0000*38\r\n$GPRMC,084850.000,A,0000.0000,N,00000.0000,E,0.00,000.00,060515,,,A*68\r\n\r\nOK\r\n
[ 08:48:52.735 ] [27:INFO] cmd: ATS89?*47C6
[ 08:48:52.741 ] [27:INFO] res: \r\n00001\r\n\r\nOK\r\n
[ 08:48:52.742 ] [27:INFO] cmd: AT%GPS=30,2,"RMC","GGA"*D90A
[ 08:48:52.743 ] [27:INFO] res: \r\n%GPS: $GPGGA,084852.000,0000.0000,N,00000.0000,E,1,05,3.0,0.00,M,,,,0000*3A\r\n$GPRMC,084852.000,A,0000.0000,N,00000.0000,E,0.00,000.00,060515,,,A*6A\r\n\r\nOK\r\n
[ 08:48:53.145 ] [27:INFO] cmd: AT%EVNT=3,1*BC22
[ 08:48:53.148 ] [27:INFO] res: \r\n%EVNT: 24,16777215,0,452594931,3,1,4,63462,0,0,0,0,0,0,0,0,0,0,0,0,0,0,0,0,0,0,257,0,0,0,0\r\n\r\nOK\r\n
[ 08:48:54.749 ] [27:INFO] cmd: ATS89?*47C6
[ 08:48:54.751 ] [27:INFO] res: \r\n00001\r\n\r\nOK\r\n
[ 08:48:54.751 ] [27:INFO] cmd: AT%GPS=30,2,"RMC","GGA"*D90A
[ 08:48:54.755 ] [27:INFO] res: \r\n%GPS: $GPGGA,084854.000,0000.0000,N,00000.0000,E,1,05,3.0,0.00,M,,,,0000*3C\r\n$GPRMC,084854.000,A,0000.0000,N,00000.0000,E,0.00,000.00,060515,,,A*6C\r\n\r\nOK\r\n
[ 08:48:56.759 ] [27:INFO] cmd: ATS89?*47C6
[ 08:48:56.761 ] [27:INFO] res: \r\n00001\r\n\r\nOK\r\n
[ 08:48:56.761 ] [27:INFO] cmd: AT%GPS=30,2,"RMC","GGA"*D90A
[ 08:48:56.765 ] [27:INFO] res: \r\n%GPS: $GPGGA,084856.000,0000.0000,N,00000.0000,E,1,05,3.0,0.00,M,,,,0000*3E\r\n$GPRMC,084856.000,A,0000.0000,N,00000.0000,E,0.00,000.00,060515,,,A*6E\r\n\r\nOK\r\n
[ 08:48:58.068 ] [27:INFO] cmd: AT%EVNT=3,1*BC22
[ 08:48:58.072 ] [27:INFO] res: \r\n%EVNT: 24,16777215,0,452594936,3,1,4,63472,0,0,0,0,0,0,0,0,0,0,0,0,0,0,0,0,0,0,257,0,0,0,0\r\n\r\nOK\r\n
[ 08:48:58.073 ] [115:INFO] Debouncing GpsBlocked=true for 1s
[ 08:48:58.074 ] [27:INFO] cmd: AT%EVNT=3,1*BC22
[ 08:48:58.077 ] [27:INFO] res: \r\n%EVNT: 24,16777215,0,452594936,3,1,4,63472,0,0,0,0,0,0,0,0,0,0,0,0,0,0,0,0,0,0,257,0,0,0,0\r\n\r\nOK\r\n
[ 08:48:58.772 ] [27:INFO] cmd: ATS89?*47C6
[ 08:48:58.777 ] [27:INFO] res: \r\n00001\r\n\r\nOK\r\n
[ 08:48:58.777 ] [27:INFO] cmd: AT%GPS=30,2,"RMC","GGA"*D90A
[ 08:48:58.780 ] [27:INFO] res: \r\n%GPS: $GPGGA,084858.000,0000.0000,N,00000.0000,E,1,05,3.0,0.00,M,,,,0000*30\r\n$GPRMC,084858.000,A,0000.0000,N,00000.0000,E,0.00,000.00,060515,,,A*60\r\n\r\nOK\r\n
[ 08:49:00.785 ] [27:INFO] cmd: ATS89?*47C6
[ 08:49:00.787 ] [27:INFO] res: \r\n00001\r\n\r\nOK\r\n
[ 08:49:00.788 ] [27:INFO] cmd: AT%GPS=30,2,"RMC","GGA"*D90A
[ 08:49:00.791 ] [27:INFO] res: \r\n%GPS: $GPGGA,084900.000,0000.0000,N,00000.0000,E,1,05,3.0,0.00,M,,,,0000*3C\r\n$GPRMC,084900.000,A,0000.0000,N,00000.0000,E,0.00,000.00,060515,,,A*6C\r\n\r\nOK\r\n
[ 08:49:02.796 ] [27:INFO] cmd: ATS89?*47C6
[ 08:49:02.799 ] [27:INFO] res: \r\n00001\r\n\r\nOK\r\n
[ 08:49:02.799 ] [27:INFO] cmd: AT%GPS=30,2,"RMC","GGA"*D90A
[ 08:49:02.802 ] [27:INFO] res: \r\n%GPS: $GPGGA,084902.000,0000.0000,N,00000.0000,E,1,05,3.0,0.00,M,,,,0000*3E\r\n$GPRMC,084902.000,A,0000.0000,N,00000.0000,E,0.00,000.00,060515,,,A*6E\r\n\r\nOK\r\n
[ 08:49:04.811 ] [27:INFO] cmd: ATS89?*47C6
[ 08:49:04.813 ] [27:INFO] res: \r\n00001\r\n\r\nOK\r\n
[ 08:49:04.814 ] [27:INFO] cmd: AT%GPS=30,2,"RMC","GGA"*D90A
[ 08:49:04.817 ] [27:INFO] res: \r\n%GPS: $GPGGA,084904.000,0000.0000,N,00000.0000,E,1,05,3.0,0.00,M,,,,0000*38\r\n$GPRMC,084904.000,A,0000.0000,N,00000.0000,E,0.00,000.00,060515,,,A*68\r\n\r\nOK\r\n
[ 08:49:06.821 ] [27:INFO] cmd: ATS89?*47C6
[ 08:49:06.826 ] [27:INFO] res: \r\n00001\r\n\r\nOK\r\n
[ 08:49:06.826 ] [27:INFO] cmd: AT%GPS=30,2,"RMC","GGA"*D90A
[ 08:49:06.830 ] [27:INFO] res: \r\n%GPS: $GPGGA,084906.000,0000.0000,N,00000.0000,E,1,05,3.0,0.00,M,,,,0000*3A\r\n$GPRMC,084906.000,A,0000.0000,N,00000.0000,E,0.00,000.00,060515,,,A*6A\r\n\r\nOK\r\n
[ 08:49:08.034 ] [27:INFO] cmd: AT%EVNT=3,1*BC22
[ 08:49:08.040 ] [27:INFO] res: \r\n%EVNT: 24,16777215,0,452594946,3,1,4,63492,0,0,0,0,0,0,0,0,0,0,0,0,0,0,0,0,0,0,257,0,0,0,0\r\n\r\nOK\r\n
[ 08:49:08.041 ] [115:INFO] Debouncing GpsBlocked=true for 1s
[ 08:49:08.042 ] [27:INFO] cmd: AT%EVNT=3,1*BC22
[ 08:49:08.046 ] [27:INFO] res: \r\n%EVNT: 24,16777215,0,452594946,3,1,4,63492,0,0,0,0,0,0,0,0,0,0,0,0,0,0,0,0,0,0,257,0,0,0,0\r\n\r\nOK\r\n
[ 08:49:08.834 ] [27:INFO] cmd: ATS89?*47C6
[ 08:49:08.836 ] [27:INFO] res: \r\n00001\r\n\r\nOK\r\n
[ 08:49:08.837 ] [27:INFO] cmd: AT%GPS=30,2,"RMC","GGA"*D90A
[ 08:49:08.840 ] [27:INFO] res: \r\n%GPS: $GPGGA,084908.000,0000.0000,N,00000.0000,E,1,05,3.0,0.00,M,,,,0000*34\r\n$GPRMC,084908.000,A,0000.0000,N,00000.0000,E,0.00,000.00,060515,,,A*64\r\n\r\nOK\r\n
[ 08:49:10.846 ] [27:INFO] cmd: ATS89?*47C6
[ 08:49:10.848 ] [27:INFO] res: \r\n00001\r\n\r\nOK\r\n
[ 08:49:10.849 ] [27:INFO] cmd: AT%GPS=30,2,"RMC","GGA"*D90A
[ 08:49:10.852 ] [27:INFO] res: \r\n%GPS: $GPGGA,084910.000,0000.0000,N,00000.0000,E,1,05,3.0,0.00,M,,,,0000*3D\r\n$GPRMC,084910.000,A,0000.0000,N,00000.0000,E,0.00,000.00,060515,,,A*6D\r\n\r\nOK\r\n
[ 08:49:12.860 ] [27:INFO] cmd: ATS89?*47C6
[ 08:49:12.862 ] [27:INFO] res: \r\n00001\r\n\r\nOK\r\n
[ 08:49:12.862 ] [27:INFO] cmd: AT%GPS=30,2,"RMC","GGA"*D90A
[ 08:49:12.866 ] [27:INFO] res: \r\n%GPS: $GPGGA,084912.000,0000.0000,N,00000.0000,E,1,05,3.0,0.00,M,,,,0000*3F\r\n$GPRMC,084912.000,A,0000.0000,N,00000.0000,E,0.00,000.00,060515,,,A*6F\r\n\r\nOK\r\n
[ 08:49:14.872 ] [27:INFO] cmd: ATS89?*47C6
[ 08:49:14.874 ] [27:INFO] res: \r\n00001\r\n\r\nOK\r\n
[ 08:49:14.875 ] [27:INFO] cmd: AT%GPS=30,2,"RMC","GGA"*D90A
[ 08:49:14.878 ] [27:INFO] res: \r\n%GPS: $GPGGA,084914.000,0000.0000,N,00000.0000,E,1,05,3.0,0.00,M,,,,0000*39\r\n$GPRMC,084914.000,A,0000.0000,N,00000.0000,E,0.00,000.00,060515,,,A*69\r\n\r\nOK\r\n
[ 08:49:16.884 ] [27:INFO] cmd: ATS89?*47C6
[ 08:49:16.886 ] [27:INFO] res: \r\n00001\r\n\r\nOK\r\n
[ 08:49:16.887 ] [27:INFO] cmd: AT%GPS=30,2,"RMC","GGA"*D90A
[ 08:49:16.892 ] [27:INFO] res: \r\n%GPS: $GPGGA,084916.000,0000.0000,N,00000.0000,E,1,05,3.0,0.00,M,,,,0000*3B\r\n$GPRMC,084916.000,A,0000.0000,N,00000.0000,E,0.00,000.00,060515,,,A*6B\r\n\r\nOK\r\n
[ 08:49:17.996 ] [27:INFO] cmd: AT%EVNT=3,1*BC22
[ 08:49:18.000 ] [27:INFO] res: \r\n%EVNT: 24,16777215,0,452594956,3,1,4,63512,0,0,0,0,0,0,0,0,0,0,0,0,0,0,0,0,0,0,257,0,0,0,0\r\n\r\nOK\r\n
[ 08:49:18.001 ] [115:INFO] Debouncing GpsBlocked=true for 1s
[ 08:49:18.002 ] [27:INFO] cmd: AT%EVNT=3,1*BC22
[ 08:49:18.005 ] [27:INFO] res: \r\n%EVNT: 24,16777215,0,452594956,3,1,4,63512,0,0,0,0,0,0,0,0,0,0,0,0,0,0,0,0,0,0,257,0,0,0,0\r\n\r\nOK\r\n
[ 08:49:18.896 ] [27:INFO] cmd: ATS89?*47C6
[ 08:49:18.899 ] [27:INFO] res: \r\n00001\r\n\r\nOK\r\n
[ 08:49:18.900 ] [27:INFO] cmd: AT%GPS=30,2,"RMC","GGA"*D90A
[ 08:49:18.904 ] [27:INFO] res: \r\n%GPS: $GPGGA,084918.000,0000.0000,N,00000.0000,E,1,05,3.0,0.00,M,,,,0000*35\r\n$GPRMC,084918.000,A,0000.0000,N,00000.0000,E,0.00,000.00,060515,,,A*65\r\n\r\nOK\r\n
[ 08:49:20.908 ] [27:INFO] cmd: ATS89?*47C6
[ 08:49:20.910 ] [27:INFO] res: \r\n00001\r\n\r\nOK\r\n
[ 08:49:20.910 ] [27:INFO] cmd: AT%GPS=30,2,"RMC","GGA"*D90A
[ 08:49:20.914 ] [27:INFO] res: \r\n%GPS: $GPGGA,084920.000,0000.0000,N,00000.0000,E,1,05,3.0,0.00,M,,,,0000*3E\r\n$GPRMC,084920.000,A,0000.0000,N,00000.0000,E,0.00,000.00,060515,,,A*6E\r\n\r\nOK\r\n
[ 08:49:22.921 ] [27:INFO] cmd: ATS89?*47C6
[ 08:49:22.924 ] [27:INFO] res: \r\n00001\r\n\r\nOK\r\n
[ 08:49:22.924 ] [27:INFO] cmd: AT%GPS=30,2,"RMC","GGA"*D90A
[ 08:49:22.927 ] [27:INFO] res: \r\n%GPS: $GPGGA,084922.000,0000.0000,N,00000.0000,E,1,05,3.0,0.00,M,,,,0000*3C\r\n$GPRMC,084922.000,A,0000.0000,N,00000.0000,E,0.00,000.00,060515,,,A*6C\r\n\r\nOK\r\n
[ 08:49:23.130 ] [27:INFO] cmd: AT%EVNT=3,1*BC22
[ 08:49:23.136 ] [27:INFO] res: \r\n%EVNT: 24,16777215,0,452594961,3,1,4,63522,0,0,0,0,0,0,0,0,0,0,0,0,0,0,0,0,0,0,257,0,0,0,0\r\n\r\nOK\r\n
[ 08:49:24.934 ] [27:INFO] cmd: ATS89?*47C6
[ 08:49:24.936 ] [27:INFO] res: \r\n00001\r\n\r\nOK\r\n
[ 08:49:24.936 ] [27:INFO] cmd: AT%GPS=30,2,"RMC","GGA"*D90A
[ 08:49:24.939 ] [27:INFO] res: \r\n%GPS: $GPGGA,084924.000,0000.0000,N,00000.0000,E,1,05,3.0,0.00,M,,,,0000*3A\r\n$GPRMC,084924.000,A,0000.0000,N,00000.0000,E,0.00,000.00,060515,,,A*6A\r\n\r\nOK\r\n
[ 08:49:26.948 ] [27:INFO] cmd: ATS89?*47C6
[ 08:49:26.950 ] [27:INFO] res: \r\n00001\r\n\r\nOK\r\n
[ 08:49:26.951 ] [27:INFO] cmd: AT%GPS=30,2,"RMC","GGA"*D90A
[ 08:49:26.954 ] [27:INFO] res: \r\n%GPS: $GPGGA,084926.000,0000.0000,N,00000.0000,E,1,05,3.0,0.00,M,,,,0000*38\r\n$GPRMC,084926.000,A,0000.0000,N,00000.0000,E,0.00,000.00,060515,,,A*68\r\n\r\nOK\r\n
[ 08:49:27.957 ] [27:INFO] cmd: AT%EVNT=3,1*BC22
[ 08:49:27.961 ] [27:INFO] res: \r\n%EVNT: 24,16777215,0,452594966,3,1,4,63532,0,0,0,0,0,0,0,0,0,0,0,0,0,0,0,0,0,0,257,0,0,0,0\r\n\r\nOK\r\n
[ 08:49:27.963 ] [27:INFO] cmd: AT%EVNT=3,1*BC22
[ 08:49:27.964 ] [27:INFO] res: \r\n%EVNT: 24,16777215,0,452594966,3,1,4,63532,0,0,0,0,0,0,0,0,0,0,0,0,0,0,0,0,0,0,257,0,0,0,0\r\n\r\nOK\r\n
[ 08:49:28.170 ] [18:INFO] completed log msg #9 (SIN=115), status=Success
[ 08:49:28.170 ] [115:INFO] Report 1. Next Std 60s Acc 60s
[ 08:49:28.178 ] [18:INFO] queuing RL msg #10 (SIN=115, bits=152)
[ 08:49:28.178 ] [18:INFO] sending RL msg #10 trn #1 (SIN=115, bits=152)
[ 08:49:28.179 ] [27:INFO] cmd: AT%MGRT="0000000A",3,115,3,FaqTqywAAAAAAAAAWkeUAAA
[ 08:49:28.181 ] [115:INFO] Event InterfaceUnitDisconnected changed to true
[ 08:49:28.203 ] [18:INFO] queuing RL msg #11 (SIN=115, bits=156)
[ 08:49:28.204 ] [27:INFO] res: \r\nOK\r\n
[ 08:49:28.204 ] [18:INFO] sending RL msg #11 trn #1 (SIN=115, bits=156)
[ 08:49:28.204 ] [27:INFO] cmd: AT%MGRT="0000000B",3,115,3,MqqTqywAAAAAAAAAWkeUAAA
[ 08:49:28.206 ] [27:INFO] res: \r\nOK\r\n
[ 08:49:28.958 ] [27:INFO] cmd: ATS89?*47C6
[ 08:49:28.960 ] [27:INFO] res: \r\n00001\r\n\r\nOK\r\n
[ 08:49:28.961 ] [27:INFO] cmd: AT%GPS=30,2,"RMC","GGA"*D90A
[ 08:49:28.965 ] [27:INFO] res: \r\n%GPS: $GPGGA,084928.000,0000.0000,N,00000.0000,E,1,05,3.0,0.00,M,,,,0000*36\r\n$GPRMC,084928.000,A,0000.0000,N,00000.0000,E,0.00,000.00,060515,,,A*66\r\n\r\nOK\r\n
[ 08:49:30.970 ] [27:INFO] cmd: ATS89?*47C6
[ 08:49:30.972 ] [27:INFO] res: \r\n00001\r\n\r\nOK\r\n
[ 08:49:30.972 ] [27:INFO] cmd: AT%GPS=30,2,"RMC","GGA"*D90A
[ 08:49:30.976 ] [27:INFO] res: \r\n%GPS: $GPGGA,084930.000,0000.0000,N,00000.0000,E,1,05,3.0,0.00,M,,,,0000*3F\r\n$GPRMC,084930.000,A,0000.0000,N,00000.0000,E,0.00,000.00,060515,,,A*6F\r\n\r\nOK\r\n
[ 08:49:32.984 ] [27:INFO] cmd: ATS89?*47C6
[ 08:49:32.986 ] [27:INFO] res: \r\n00001\r\n\r\nOK\r\n
[ 08:49:32.987 ] [27:INFO] cmd: AT%GPS=30,2,"RMC","GGA"*D90A
[ 08:49:32.991 ] [27:INFO] res: \r\n%GPS: $GPGGA,084932.000,0000.0000,N,00000.0000,E,1,05,3.0,0.00,M,,,,0000*3D\r\n$GPRMC,084932.000,A,0000.0000,N,00000.0000,E,0.00,000.00,060515,,,A*6D\r\n\r\nOK\r\n
[ 08:49:34.153 ] [27:INFO] cmd: ATS89?*47C6
[ 08:49:34.155 ] [27:INFO] res: \r\n00004\r\n\r\nOK\r\n
[ 08:49:34.156 ] [27:INFO] cmd: AT%MGRS*04F9
[ 08:49:34.159 ] [27:INFO] res: \r\n%MGRS: "0000000A",41.1,3,115,6,19,19\r\n"0000000B",42.1,3,115,6,20,20\r\n\r\nOK\r\n
[ 08:49:34.161 ] [18:INFO] completed RL msg #10 (SIN=115), status=Success
[ 08:49:34.163 ] [18:INFO] completed RL msg #11 (SIN=115), status=Success
[ 08:49:34.995 ] [27:INFO] cmd: ATS89?*47C6
[ 08:49:34.997 ] [27:INFO] res: \r\n00001\r\n\r\nOK\r\n
[ 08:49:34.999 ] [27:INFO] cmd: AT%GPS=30,2,"RMC","GGA"*D90A
[ 08:49:35.002 ] [27:INFO] res: \r\n%GPS: $GPGGA,084935.000,0000.0000,N,00000.0000,E,1,05,3.0,0.00,M,,,,0000*3A\r\n$GPRMC,084935.000,A,0000.0000,N,00000.0000,E,0.00,000.00,060515,,,A*6A\r\n\r\nOK\r\n
[ 08:49:37.007 ] [27:INFO] cmd: ATS89?*47C6
[ 08:49:37.011 ] [27:INFO] res: \r\n00001\r\n\r\nOK\r\n
[ 08:49:37.011 ] [27:INFO] cmd: AT%GPS=30,2,"RMC","GGA"*D90A
[ 08:49:37.015 ] [27:INFO] res: \r\n%GPS: $GPGGA,084937.000,0000.0000,N,00000.0000,E,1,05,3.0,0.00,M,,,,0000*38\r\n$GPRMC,084937.000,A,0000.0000,N,00000.0000,E,0.00,000.00,060515,,,A*68\r\n\r\nOK\r\n
[ 08:49:37.918 ] [27:INFO] cmd: AT%EVNT=3,1*BC22
[ 08:49:37.922 ] [27:INFO] res: \r\n%EVNT: 24,16777215,0,452594976,3,1,4,63552,0,0,0,0,0,0,0,0,0,0,0,0,0,0,0,0,0,0,257,0,0,0,0\r\n\r\nOK\r\n
[ 08:49:37.925 ] [27:INFO] cmd: AT%EVNT=3,1*BC22
[ 08:49:37.928 ] [27:INFO] res: \r\n%EVNT: 24,16777215,0,452594976,3,1,4,63552,0,0,0,0,0,0,0,0,0,0,0,0,0,0,0,0,0,0,257,0,0,0,0\r\n\r\nOK\r\n
[ 08:49:39.020 ] [27:INFO] cmd: ATS89?*47C6
[ 08:49:39.024 ] [27:INFO] res: \r\n00001\r\n\r\nOK\r\n
[ 08:49:39.024 ] [27:INFO] cmd: AT%GPS=30,2,"RMC","GGA"*D90A
[ 08:49:39.027 ] [27:INFO] res: \r\n%GPS: $GPGGA,084939.000,0000.0000,N,00000.0000,E,1,05,3.0,0.00,M,,,,0000*36\r\n$GPRMC,084939.000,A,0000.0000,N,00000.0000,E,0.00,000.00,060515,,,A*66\r\n\r\nOK\r\n
[ 08:49:41.032 ] [27:INFO] cmd: ATS89?*47C6
[ 08:49:41.033 ] [27:INFO] res: \r\n00001\r\n\r\nOK\r\n
[ 08:49:41.034 ] [27:INFO] cmd: AT%GPS=30,2,"RMC","GGA"*D90A
[ 08:49:41.037 ] [27:INFO] res: \r\n%GPS: $GPGGA,084941.000,0000.0000,N,00000.0000,E,1,05,3.0,0.00,M,,,,0000*39\r\n$GPRMC,084941.000,A,0000.0000,N,00000.0000,E,0.00,000.00,060515,,,A*69\r\n\r\nOK\r\n
[ 08:49:43.049 ] [27:INFO] cmd: ATS89?*47C6
[ 08:49:43.052 ] [27:INFO] res: \r\n00001\r\n\r\nOK\r\n
[ 08:49:43.053 ] [27:INFO] cmd: AT%GPS=30,2,"RMC","GGA"*D90A
[ 08:49:43.056 ] [27:INFO] res: \r\n%GPS: $GPGGA,084943.000,0000.0000,N,00000.0000,E,1,05,3.0,0.00,M,,,,0000*3B\r\n$GPRMC,084943.000,A,0000.0000,N,00000.0000,E,0.00,000.00,060515,,,A*6B\r\n\r\nOK\r\n
[ 08:49:45.057 ] [27:INFO] cmd: ATS89?*47C6
[ 08:49:45.060 ] [27:INFO] res: \r\n00001\r\n\r\nOK\r\n
[ 08:49:45.060 ] [27:INFO] cmd: AT%GPS=30,2,"RMC","GGA"*D90A
[ 08:49:45.064 ] [27:INFO] res: \r\n%GPS: $GPGGA,084945.000,0000.0000,N,00000.0000,E,1,05,3.0,0.00,M,,,,0000*3D\r\n$GPRMC,084945.000,A,0000.0000,N,00000.0000,E,0.00,000.00,060515,,,A*6D\r\n\r\nOK\r\n
[ 08:49:47.070 ] [27:INFO] cmd: ATS89?*47C6
[ 08:49:47.072 ] [27:INFO] res: \r\n00001\r\n\r\nOK\r\n
[ 08:49:47.073 ] [27:INFO] cmd: AT%GPS=30,2,"RMC","GGA"*D90A
[ 08:49:47.076 ] [27:INFO] res: \r\n%GPS: $GPGGA,084947.000,0000.0000,N,00000.0000,E,1,05,3.0,0.00,M,,,,0000*3F\r\n$GPRMC,084947.000,A,0000.0000,N,00000.0000,E,0.00,000.00,060515,,,A*6F\r\n\r\nOK\r\n
[ 08:49:47.879 ] [27:INFO] cmd: AT%EVNT=3,1*BC22
[ 08:49:47.882 ] [27:INFO] res: \r\n%EVNT: 24,16777215,0,452594986,3,1,4,63572,0,0,0,0,0,0,0,0,0,0,0,0,0,0,0,0,0,0,257,0,0,0,0\r\n\r\nOK\r\n
[ 08:49:47.884 ] [27:INFO] cmd: AT%EVNT=3,1*BC22
[ 08:49:47.888 ] [27:INFO] res: \r\n%EVNT: 24,16777215,0,452594986,3,1,4,63572,0,0,0,0,0,0,0,0,0,0,0,0,0,0,0,0,0,0,257,0,0,0,0\r\n\r\nOK\r\n
[ 08:49:49.083 ] [27:INFO] cmd: ATS89?*47C6
[ 08:49:49.085 ] [27:INFO] res: \r\n00001\r\n\r\nOK\r\n
[ 08:49:49.085 ] [27:INFO] cmd: AT%GPS=30,2,"RMC","GGA"*D90A
[ 08:49:49.089 ] [27:INFO] res: \r\n%GPS: $GPGGA,084949.000,0000.0000,N,00000.0000,E,1,05,3.0,0.00,M,,,,0000*31\r\n$GPRMC,084949.000,A,0000.0000,N,00000.0000,E,0.00,000.00,060515,,,A*61\r\n\r\nOK\r\n
[ 08:49:51.095 ] [27:INFO] cmd: ATS89?*47C6
[ 08:49:51.097 ] [27:INFO] res: \r\n00001\r\n\r\nOK\r\n
[ 08:49:51.098 ] [27:INFO] cmd: AT%GPS=30,2,"RMC","GGA"*D90A
[ 08:49:51.101 ] [27:INFO] res: \r\n%GPS: $GPGGA,084951.000,0000.0000,N,00000.0000,E,1,05,3.0,0.00,M,,,,0000*38\r\n$GPRMC,084951.000,A,0000.0000,N,00000.0000,E,0.00,000.00,060515,,,A*68\r\n\r\nOK\r\n
[ 08:49:53.104 ] [27:INFO] cmd: AT%EVNT=3,1*BC22
[ 08:49:53.108 ] [27:INFO] res: \r\n%EVNT: 24,16777215,0,452594991,3,1,4,63582,0,0,0,0,0,0,0,0,0,0,0,0,0,0,0,0,0,0,257,0,0,0,0\r\n\r\nOK\r\n
[ 08:49:53.110 ] [27:INFO] cmd: ATS89?*47C6
[ 08:49:53.112 ] [27:INFO] res: \r\n00001\r\n\r\nOK\r\n
[ 08:49:53.112 ] [27:INFO] cmd: AT%GPS=30,2,"RMC","GGA"*D90A
[ 08:49:53.116 ] [27:INFO] res: \r\n%GPS: $GPGGA,084953.000,0000.0000,N,00000.0000,E,1,05,3.0,0.00,M,,,,0000*3A\r\n$GPRMC,084953.000,A,0000.0000,N,00000.0000,E,0.00,000.00,060515,,,A*6A\r\n\r\nOK\r\n
[ 08:49:55.119 ] [27:INFO] cmd: ATS89?*47C6
[ 08:49:55.121 ] [27:INFO] res: \r\n00001\r\n\r\nOK\r\n
[ 08:49:55.121 ] [27:INFO] cmd: AT%GPS=30,2,"RMC","GGA"*D90A
[ 08:49:55.125 ] [27:INFO] res: \r\n%GPS: $GPGGA,084955.000,0000.0000,N,00000.0000,E,1,05,3.0,0.00,M,,,,0000*3C\r\n$GPRMC,084955.000,A,0000.0000,N,00000.0000,E,0.00,000.00,060515,,,A*6C\r\n\r\nOK\r\n
[ 08:49:57.132 ] [27:INFO] cmd: ATS89?*47C6
[ 08:49:57.134 ] [27:INFO] res: \r\n00001\r\n\r\nOK\r\n
[ 08:49:57.134 ] [27:INFO] cmd: AT%GPS=30,2,"RMC","GGA"*D90A
[ 08:49:57.137 ] [27:INFO] res: \r\n%GPS: $GPGGA,084957.000,0000.0000,N,00000.0000,E,1,05,3.0,0.00,M,,,,0000*3E\r\n$GPRMC,084957.000,A,0000.0000,N,00000.0000,E,0.00,000.00,060515,,,A*6E\r\n\r\nOK\r\n
[ 08:49:57.840 ] [27:INFO] cmd: AT%EVNT=3,1*BC22
[ 08:49:57.846 ] [27:INFO] res: \r\n%EVNT: 24,16777215,0,452594996,3,1,4,63592,0,0,0,0,0,0,0,0,0,0,0,0,0,0,0,0,0,0,257,0,0,0,0\r\n\r\nOK\r\n
[ 08:49:57.847 ] [27:INFO] cmd: AT%EVNT=3,1*BC22
[ 08:49:57.850 ] [27:INFO] res: \r\n%EVNT: 24,16777215,0,452594996,3,1,4,63592,0,0,0,0,0,0,0,0,0,0,0,0,0,0,0,0,0,0,257,0,0,0,0\r\n\r\nOK\r\n
[ 08:49:59.144 ] [27:INFO] cmd: ATS89?*47C6
[ 08:49:59.146 ] [27:INFO] res: \r\n00001\r\n\r\nOK\r\n
[ 08:49:59.147 ] [27:INFO] cmd: AT%GPS=30,2,"RMC","GGA"*D90A
[ 08:49:59.150 ] [27:INFO] res: \r\n%GPS: $GPGGA,084959.000,0000.0000,N,00000.0000,E,1,05,3.0,0.00,M,,,,0000*30\r\n$GPRMC,084959.000,A,0000.0000,N,00000.0000,E,0.00,000.00,060515,,,A*60\r\n\r\nOK\r\n
[ 08:50:01.159 ] [27:INFO] cmd: ATS89?*47C6
[ 08:50:01.161 ] [27:INFO] res: \r\n00001\r\n\r\nOK\r\n
[ 08:50:01.162 ] [27:INFO] cmd: AT%GPS=30,2,"RMC","GGA"*D90A
[ 08:50:01.165 ] [27:INFO] res: \r\n%GPS: $GPGGA,085001.000,0000.0000,N,00000.0000,E,1,05,3.0,0.00,M,,,,0000*35\r\n$GPRMC,085001.000,A,0000.0000,N,00000.0000,E,0.00,000.00,060515,,,A*65\r\n\r\nOK\r\n
[ 08:50:03.171 ] [27:INFO] cmd: ATS89?*47C6
[ 08:50:03.174 ] [27:INFO] res: \r\n00001\r\n\r\nOK\r\n
[ 08:50:03.174 ] [27:INFO] cmd: AT%GPS=30,2,"RMC","GGA"*D90A
[ 08:50:03.177 ] [27:INFO] res: \r\n%GPS: $GPGGA,085003.000,0000.0000,N,00000.0000,E,1,05,3.0,0.00,M,,,,0000*37\r\n$GPRMC,085003.000,A,0000.0000,N,00000.0000,E,0.00,000.00,060515,,,A*67\r\n\r\nOK\r\n
[ 08:50:05.183 ] [27:INFO] cmd: ATS89?*47C6
[ 08:50:05.187 ] [27:INFO] res: \r\n00001\r\n\r\nOK\r\n
[ 08:50:05.188 ] [27:INFO] cmd: AT%GPS=30,2,"RMC","GGA"*D90A
[ 08:50:05.191 ] [27:INFO] res: \r\n%GPS: $GPGGA,085005.000,0000.0000,N,00000.0000,E,1,05,3.0,0.00,M,,,,0000*31\r\n$GPRMC,085005.000,A,0000.0000,N,00000.0000,E,0.00,000.00,060515,,,A*61\r\n\r\nOK\r\n
[ 08:50:07.194 ] [27:INFO] cmd: ATS89?*47C6
[ 08:50:07.196 ] [27:INFO] res: \r\n00001\r\n\r\nOK\r\n
[ 08:50:07.196 ] [27:INFO] cmd: AT%GPS=30,2,"RMC","GGA"*D90A
[ 08:50:07.202 ] [27:INFO] res: \r\n%GPS: $GPGGA,085007.000,0000.0000,N,00000.0000,E,1,05,3.0,0.00,M,,,,0000*33\r\n$GPRMC,085007.000,A,0000.0000,N,00000.0000,E,0.00,000.00,060515,,,A*63\r\n\r\nOK\r\n
[ 08:50:07.806 ] [27:INFO] cmd: AT%EVNT=3,1*BC22
[ 08:50:07.810 ] [27:INFO] res: \r\n%EVNT: 24,16777215,0,452595006,3,1,4,63612,0,0,0,0,0,0,0,0,0,0,0,0,0,0,0,0,0,0,257,0,0,0,0\r\n\r\nOK\r\n
[ 08:50:07.813 ] [27:INFO] cmd: AT%EVNT=3,1*BC22
[ 08:50:07.816 ] [27:INFO] res: \r\n%EVNT: 24,16777215,0,452595006,3,1,4,63612,0,0,0,0,0,0,0,0,0,0,0,0,0,0,0,0,0,0,257,0,0,0,0\r\n\r\nOK\r\n
[ 08:50:09.207 ] [27:INFO] cmd: ATS89?*47C6
[ 08:50:09.209 ] [27:INFO] res: \r\n00001\r\n\r\nOK\r\n
[ 08:50:09.209 ] [27:INFO] cmd: AT%GPS=30,2,"RMC","GGA"*D90A
[ 08:50:09.213 ] [27:INFO] res: \r\n%GPS: $GPGGA,085009.000,0000.0000,N,00000.0000,E,1,05,3.0,0.00,M,,,,0000*3D\r\n$GPRMC,085009.000,A,0000.0000,N,00000.0000,E,0.00,000.00,060515,,,A*6D\r\n\r\nOK\r\n
[ 08:50:11.218 ] [27:INFO] cmd: ATS89?*47C6
[ 08:50:11.220 ] [27:INFO] res: \r\n00001\r\n\r\nOK\r\n
[ 08:50:11.221 ] [27:INFO] cmd: AT%GPS=30,2,"RMC","GGA"*D90A
[ 08:50:11.224 ] [27:INFO] res: \r\n%GPS: $GPGGA,085011.000,0000.0000,N,00000.0000,E,1,05,3.0,0.00,M,,,,0000*34\r\n$GPRMC,085011.000,A,0000.0000,N,00000.0000,E,0.00,000.00,060515,,,A*64\r\n\r\nOK\r\n
[ 08:50:13.231 ] [27:INFO] cmd: ATS89?*47C6
[ 08:50:13.233 ] [27:INFO] res: \r\n00001\r\n\r\nOK\r\n
[ 08:50:13.234 ] [27:INFO] cmd: AT%GPS=30,2,"RMC","GGA"*D90A
[ 08:50:13.237 ] [27:INFO] res: \r\n%GPS: $GPGGA,085013.000,0000.0000,N,00000.0000,E,1,05,3.0,0.00,M,,,,0000*36\r\n$GPRMC,085013.000,A,0000.0000,N,00000.0000,E,0.00,000.00,060515,,,A*66\r\n\r\nOK\r\n
[ 08:50:15.243 ] [27:INFO] cmd: ATS89?*47C6
[ 08:50:15.253 ] [27:INFO] res: \r\n00001\r\n\r\nOK\r\n
[ 08:50:15.254 ] [27:INFO] cmd: AT%GPS=30,2,"RMC","GGA"*D90A
[ 08:50:15.257 ] [27:INFO] res: \r\n%GPS: $GPGGA,085015.000,0000.0000,N,00000.0000,E,1,05,3.0,0.00,M,,,,0000*30\r\n$GPRMC,085015.000,A,0000.0000,N,00000.0000,E,0.00,000.00,060515,,,A*60\r\n\r\nOK\r\n
[ 08:50:17.256 ] [27:INFO] cmd: ATS89?*47C6
[ 08:50:17.260 ] [27:INFO] res: \r\n00001\r\n\r\nOK\r\n
[ 08:50:17.260 ] [27:INFO] cmd: AT%GPS=30,2,"RMC","GGA"*D90A
[ 08:50:17.264 ] [27:INFO] res: \r\n%GPS: $GPGGA,085017.000,0000.0000,N,00000.0000,E,1,05,3.0,0.00,M,,,,0000*32\r\n$GPRMC,085017.000,A,0000.0000,N,00000.0000,E,0.00,000.00,060515,,,A*62\r\n\r\nOK\r\n
[ 08:50:17.767 ] [27:INFO] cmd: AT%EVNT=3,1*BC22
[ 08:50:17.770 ] [27:INFO] res: \r\n%EVNT: 24,16777215,0,452595017,3,1,4,63634,0,0,0,0,0,0,0,0,0,0,0,0,0,0,0,0,0,0,257,0,0,0,0\r\n\r\nOK\r\n
[ 08:50:17.771 ] [27:INFO] cmd: AT%EVNT=3,1*BC22
[ 08:50:17.775 ] [27:INFO] res: \r\n%EVNT: 24,16777215,0,452595017,3,1,4,63634,0,0,0,0,0,0,0,0,0,0,0,0,0,0,0,0,0,0,257,0,0,0,0\r\n\r\nOK\r\n
[ 08:50:19.269 ] [27:INFO] cmd: ATS89?*47C6
[ 08:50:19.271 ] [27:INFO] res: \r\n00001\r\n\r\nOK\r\n
[ 08:50:19.271 ] [27:INFO] cmd: AT%GPS=30,2,"RMC","GGA"*D90A
[ 08:50:19.275 ] [27:INFO] res: \r\n%GPS: $GPGGA,085019.000,0000.0000,N,00000.0000,E,1,05,3.0,0.00,M,,,,0000*3C\r\n$GPRMC,085019.000,A,0000.0000,N,00000.0000,E,0.00,000.00,060515,,,A*6C\r\n\r\nOK\r\n
[ 08:50:21.281 ] [27:INFO] cmd: ATS89?*47C6
[ 08:50:21.283 ] [27:INFO] res: \r\n00001\r\n\r\nOK\r\n
[ 08:50:21.284 ] [27:INFO] cmd: AT%GPS=30,2,"RMC","GGA"*D90A
[ 08:50:21.288 ] [27:INFO] res: \r\n%GPS: $GPGGA,085021.000,0000.0000,N,00000.0000,E,1,05,3.0,0.00,M,,,,0000*37\r\n$GPRMC,085021.000,A,0000.0000,N,00000.0000,E,0.00,000.00,060515,,,A*67\r\n\r\nOK\r\n
[ 08:50:23.090 ] [27:INFO] cmd: AT%EVNT=3,1*BC22
[ 08:50:23.096 ] [27:INFO] res: \r\n%EVNT: 24,16777215,0,452595022,3,1,4,63644,0,0,0,0,0,0,0,0,0,0,0,0,0,0,0,0,0,0,257,0,0,0,0\r\n\r\nOK\r\n
[ 08:50:23.294 ] [27:INFO] cmd: ATS89?*47C6
[ 08:50:23.296 ] [27:INFO] res: \r\n00001\r\n\r\nOK\r\n
[ 08:50:23.296 ] [27:INFO] cmd: AT%GPS=30,2,"RMC","GGA"*D90A
[ 08:50:23.299 ] [27:INFO] res: \r\n%GPS: $GPGGA,085023.000,0000.0000,N,00000.0000,E,1,05,3.0,0.00,M,,,,0000*35\r\n$GPRMC,085023.000,A,0000.0000,N,00000.0000,E,0.00,000.00,060515,,,A*65\r\n\r\nOK\r\n
[ 08:50:25.305 ] [27:INFO] cmd: ATS89?*47C6
[ 08:50:25.307 ] [27:INFO] res: \r\n00001\r\n\r\nOK\r\n
[ 08:50:25.308 ] [27:INFO] cmd: AT%GPS=30,2,"RMC","GGA"*D90A
[ 08:50:25.311 ] [27:INFO] res: \r\n%GPS: $GPGGA,085025.000,0000.0000,N,00000.0000,E,1,05,3.0,0.00,M,,,,0000*33\r\n$GPRMC,085025.000,A,0000.0000,N,00000.0000,E,0.00,000.00,060515,,,A*63\r\n\r\nOK\r\n
[ 08:50:27.319 ] [27:INFO] cmd: ATS89?*47C6
[ 08:50:27.321 ] [27:INFO] res: \r\n00001\r\n\r\nOK\r\n
[ 08:50:27.321 ] [27:INFO] cmd: AT%GPS=30,2,"RMC","GGA"*D90A
[ 08:50:27.325 ] [27:INFO] res: \r\n%GPS: $GPGGA,085027.000,0000.0000,N,00000.0000,E,1,05,3.0,0.00,M,,,,0000*31\r\n$GPRMC,085027.000,A,0000.0000,N,00000.0000,E,0.00,000.00,060515,,,A*61\r\n\r\nOK\r\n
[ 08:50:27.728 ] [27:INFO] cmd: AT%EVNT=3,1*BC22
[ 08:50:27.732 ] [27:INFO] res: \r\n%EVNT: 24,16777215,0,452595027,3,1,4,63654,0,0,0,0,0,0,0,0,0,0,0,0,0,0,0,0,0,0,257,0,0,0,0\r\n\r\nOK\r\n
[ 08:50:27.733 ] [27:INFO] cmd: AT%EVNT=3,1*BC22
[ 08:50:27.736 ] [27:INFO] res: \r\n%EVNT: 24,16777215,0,452595027,3,1,4,63654,0,0,0,0,0,0,0,0,0,0,0,0,0,0,0,0,0,0,257,0,0,0,0\r\n\r\nOK\r\n
[ 08:50:28.138 ] [115:INFO] Report 1. Next Std 61s Acc 1s
[ 08:50:28.146 ] [18:INFO] queuing RL msg #12 (SIN=115, bits=152)
[ 08:50:28.147 ] [18:INFO] sending RL msg #12 trn #1 (SIN=115, bits=152)
[ 08:50:28.148 ] [27:INFO] cmd: AT%MGRT="0000000C",3,115,3,FaqTq6YAAAAAAAAAWkeUAAA
[ 08:50:28.151 ] [27:INFO] res: \r\nOK\r\n
[ 08:50:29.153 ] [115:INFO] Report 1. Next Std 60s Acc 60s
[ 08:50:29.160 ] [18:INFO] queuing RL msg #13 (SIN=115, bits=152)
[ 08:50:29.161 ] [18:INFO] sending RL msg #13 trn #1 (SIN=115, bits=152)
[ 08:50:29.161 ] [27:INFO] cmd: AT%MGRT="0000000D",3,115,3,FqqTq6YAAAAAAAAAWkeUAAA
[ 08:50:29.164 ] [27:INFO] res: \r\nOK\r\n
[ 08:50:29.330 ] [27:INFO] cmd: ATS89?*47C6
[ 08:50:29.331 ] [27:INFO] res: \r\n00001\r\n\r\nOK\r\n
[ 08:50:29.331 ] [27:INFO] cmd: AT%GPS=30,2,"RMC","GGA"*D90A
[ 08:50:29.332 ] [27:INFO] res: \r\n%GPS: $GPGGA,085029.000,0000.0000,N,00000.0000,E,1,05,3.0,0.00,M,,,,0000*3F\r\n$GPRMC,085029.000,A,0000.0000,N,00000.0000,E,0.00,000.00,060515,,,A*6F\r\n\r\nOK\r\n
[ 08:50:31.344 ] [27:INFO] cmd: ATS89?*47C6
[ 08:50:31.346 ] [27:INFO] res: \r\n00001\r\n\r\nOK\r\n
[ 08:50:31.346 ] [27:INFO] cmd: AT%GPS=30,2,"RMC","GGA"*D90A
[ 08:50:31.350 ] [27:INFO] res: \r\n%GPS: $GPGGA,085031.000,0000.0000,N,00000.0000,E,1,05,3.0,0.00,M,,,,0000*36\r\n$GPRMC,085031.000,A,0000.0000,N,00000.0000,E,0.00,000.00,060515,,,A*66\r\n\r\nOK\r\n
[ 08:50:33.356 ] [27:INFO] cmd: ATS89?*47C6
[ 08:50:33.358 ] [27:INFO] res: \r\n00001\r\n\r\nOK\r\n
[ 08:50:33.359 ] [27:INFO] cmd: AT%GPS=30,2,"RMC","GGA"*D90A
[ 08:50:33.363 ] [27:INFO] res: \r\n%GPS: $GPGGA,085033.000,0000.0000,N,00000.0000,E,1,05,3.0,0.00,M,,,,0000*34\r\n$GPRMC,085033.000,A,0000.0000,N,00000.0000,E,0.00,000.00,060515,,,A*64\r\n\r\nOK\r\n
[ 08:50:33.980 ] [27:INFO] cmd: ATS89?*47C6
[ 08:50:33.983 ] [27:INFO] res: \r\n00004\r\n\r\nOK\r\n
[ 08:50:33.983 ] [27:INFO] cmd: AT%MGRS*04F9
[ 08:50:33.989 ] [27:INFO] res: \r\n%MGRS: "0000000C",43.1,3,115,6,19,19\r\n"0000000D",44.1,3,115,5,19,0\r\n\r\nOK\r\n
[ 08:50:33.991 ] [18:INFO] completed RL msg #12 (SIN=115), status=Success
[ 08:50:34.993 ] [27:INFO] cmd: ATS89?*47C6
[ 08:50:34.994 ] [27:INFO] res: \r\n00004\r\n\r\nOK\r\n
[ 08:50:34.994 ] [27:INFO] cmd: AT%MGRS*04F9
[ 08:50:34.995 ] [27:INFO] res: \r\n%MGRS: "0000000D",44.1,3,115,6,19,19\r\n\r\nOK\r\n
[ 08:50:34.996 ] [18:INFO] completed RL msg #13 (SIN=115), status=Success
[ 08:50:35.368 ] [27:INFO] cmd: ATS89?*47C6
[ 08:50:35.370 ] [27:INFO] res: \r\n00001\r\n\r\nOK\r\n
[ 08:50:35.370 ] [27:INFO] cmd: AT%GPS=30,2,"RMC","GGA"*D90A
[ 08:50:35.374 ] [27:INFO] res: \r\n%GPS: $GPGGA,085035.000,0000.0000,N,00000.0000,E,1,05,3.0,0.00,M,,,,0000*32\r\n$GPRMC,085035.000,A,0000.0000,N,00000.0000,E,0.00,000.00,060515,,,A*62\r\n\r\nOK\r\n
[ 08:50:37.380 ] [27:INFO] cmd: ATS89?*47C6
[ 08:50:37.382 ] [27:INFO] res: \r\n00001\r\n\r\nOK\r\n
[ 08:50:37.382 ] [27:INFO] cmd: AT%GPS=30,2,"RMC","GGA"*D90A
[ 08:50:37.386 ] [27:INFO] res: \r\n%GPS: $GPGGA,085037.000,0000.0000,N,00000.0000,E,1,05,3.0,0.00,M,,,,0000*30\r\n$GPRMC,085037.000,A,0000.0000,N,00000.0000,E,0.00,000.00,060515,,,A*60\r\n\r\nOK\r\n
[ 08:50:37.689 ] [27:INFO] cmd: AT%EVNT=3,1*BC22
[ 08:50:37.692 ] [27:INFO] res: \r\n%EVNT: 24,16777215,0,452595037,3,1,4,63674,0,0,0,0,0,0,0,0,0,0,0,0,0,0,0,0,0,0,257,0,0,0,0\r\n\r\nOK\r\n
[ 08:50:37.694 ] [27:INFO] cmd: AT%EVNT=3,1*BC22
[ 08:50:37.697 ] [27:INFO] res: \r\n%EVNT: 24,16777215,0,452595037,3,1,4,63674,0,0,0,0,0,0,0,0,0,0,0,0,0,0,0,0,0,0,257,0,0,0,0\r\n\r\nOK\r\n
[ 08:50:39.394 ] [27:INFO] cmd: ATS89?*47C6
[ 08:50:39.396 ] [27:INFO] res: \r\n00001\r\n\r\nOK\r\n
[ 08:50:39.397 ] [27:INFO] cmd: AT%GPS=30,2,"RMC","GGA"*D90A
[ 08:50:39.400 ] [27:INFO] res: \r\n%GPS: $GPGGA,085039.000,0000.0000,N,00000.0000,E,1,05,3.0,0.00,M,,,,0000*3E\r\n$GPRMC,085039.000,A,0000.0000,N,00000.0000,E,0.00,000.00,060515,,,A*6E\r\n\r\nOK\r\n
[ 08:50:41.405 ] [27:INFO] cmd: ATS89?*47C6
[ 08:50:41.407 ] [27:INFO] res: \r\n00001\r\n\r\nOK\r\n
[ 08:50:41.407 ] [27:INFO] cmd: AT%GPS=30,2,"RMC","GGA"*D90A
[ 08:50:41.411 ] [27:INFO] res: \r\n%GPS: $GPGGA,085041.000,0000.0000,N,00000.0000,E,1,05,3.0,0.00,M,,,,0000*31\r\n$GPRMC,085041.000,A,0000.0000,N,00000.0000,E,0.00,000.00,060515,,,A*61\r\n\r\nOK\r\n
[ 08:50:43.417 ] [27:INFO] cmd: ATS89?*47C6
[ 08:50:43.419 ] [27:INFO] res: \r\n00001\r\n\r\nOK\r\n
[ 08:50:43.419 ] [27:INFO] cmd: AT%GPS=30,2,"RMC","GGA"*D90A
[ 08:50:43.423 ] [27:INFO] res: \r\n%GPS: $GPGGA,085043.000,0000.0000,N,00000.0000,E,1,05,3.0,0.00,M,,,,0000*33\r\n$GPRMC,085043.000,A,0000.0000,N,00000.0000,E,0.00,000.00,060515,,,A*63\r\n\r\nOK\r\n
[ 08:50:45.429 ] [27:INFO] cmd: ATS89?*47C6
[ 08:50:45.431 ] [27:INFO] res: \r\n00001\r\n\r\nOK\r\n
[ 08:50:45.431 ] [27:INFO] cmd: AT%GPS=30,2,"RMC","GGA"*D90A
[ 08:50:45.435 ] [27:INFO] res: \r\n%GPS: $GPGGA,085045.000,0000.0000,N,00000.0000,E,1,05,3.0,0.00,M,,,,0000*35\r\n$GPRMC,085045.000,A,0000.0000,N,00000.0000,E,0.00,000.00,060515,,,A*65\r\n\r\nOK\r\n
[ 08:50:47.444 ] [27:INFO] cmd: ATS89?*47C6
[ 08:50:47.454 ] [27:INFO] res: \r\n00001\r\n\r\nOK\r\n
[ 08:50:47.457 ] [27:INFO] cmd: AT%GPS=30,2,"RMC","GGA"*D90A
[ 08:50:47.463 ] [27:INFO] res: \r\n%GPS: $GPGGA,085047.000,0000.0000,N,00000.0000,E,1,05,3.0,0.00,M,,,,0000*37\r\n$GPRMC,085047.000,A,0000.0000,N,00000.0000,E,0.00,000.00,060515,,,A*67\r\n\r\nOK\r\n
[ 08:50:47.664 ] [27:INFO] cmd: AT%EVNT=3,1*BC22
[ 08:50:47.670 ] [27:INFO] res: \r\n%EVNT: 24,16777215,0,452595047,3,1,4,63694,0,0,0,0,0,0,0,0,0,0,0,0,0,0,0,0,0,0,257,0,0,0,0\r\n\r\nOK\r\n
[ 08:50:47.671 ] [27:INFO] cmd: AT%EVNT=3,1*BC22
[ 08:50:47.674 ] [27:INFO] res: \r\n%EVNT: 24,16777215,0,452595047,3,1,4,63694,0,0,0,0,0,0,0,0,0,0,0,0,0,0,0,0,0,0,257,0,0,0,0\r\n\r\nOK\r\n
[ 08:50:49.456 ] [27:INFO] cmd: ATS89?*47C6
[ 08:50:49.465 ] [27:INFO] res: \r\n00001\r\n\r\nOK\r\n
[ 08:50:49.468 ] [27:INFO] cmd: AT%GPS=30,2,"RMC","GGA"*D90A
[ 08:50:49.474 ] [27:INFO] res: \r\n%GPS: $GPGGA,085049.000,0000.0000,N,00000.0000,E,1,05,3.0,0.00,M,,,,0000*39\r\n$GPRMC,085049.000,A,0000.0000,N,00000.0000,E,0.00,000.00,060515,,,A*69\r\n\r\nOK\r\n
[ 08:50:51.470 ] [27:INFO] cmd: ATS89?*47C6
[ 08:50:51.471 ] [27:INFO] res: \r\n00001\r\n\r\nOK\r\n
[ 08:50:51.472 ] [27:INFO] cmd: AT%GPS=30,2,"RMC","GGA"*D90A
[ 08:50:51.475 ] [27:INFO] res: \r\n%GPS: $GPGGA,085051.000,0000.0000,N,00000.0000,E,1,05,3.0,0.00,M,,,,0000*30\r\n$GPRMC,085051.000,A,0000.0000,N,00000.0000,E,0.00,000.00,060515,,,A*60\r\n\r\nOK\r\n
[ 08:50:53.079 ] [27:INFO] cmd: AT%EVNT=3,1*BC22
[ 08:50:53.082 ] [27:INFO] res: \r\n%EVNT: 24,16777215,0,452595052,3,1,4,63704,0,0,0,0,0,0,0,0,0,0,0,0,0,0,0,0,0,0,257,0,0,0,0\r\n\r\nOK\r\n
[ 08:50:53.479 ] [27:INFO] cmd: ATS89?*47C6
[ 08:50:53.479 ] [27:INFO] res: \r\n00001\r\n\r\nOK\r\n
[ 08:50:53.479 ] [27:INFO] cmd: AT%GPS=30,2,"RMC","GGA"*D90A
[ 08:50:53.481 ] [27:INFO] res: \r\n%GPS: $GPGGA,085053.000,0000.0000,N,00000.0000,E,1,05,3.0,0.00,M,,,,0000*32\r\n$GPRMC,085053.000,A,0000.0000,N,00000.0000,E,0.00,000.00,060515,,,A*62\r\n\r\nOK\r\n
[ 08:50:55.490 ] [27:INFO] cmd: ATS89?*47C6
[ 08:50:55.491 ] [27:INFO] res: \r\n00001\r\n\r\nOK\r\n
[ 08:50:55.491 ] [27:INFO] cmd: AT%GPS=30,2,"RMC","GGA"*D90A
[ 08:50:55.493 ] [27:INFO] res: \r\n%GPS: $GPGGA,085055.000,0000.0000,N,00000.0000,E,1,05,3.0,0.00,M,,,,0000*34\r\n$GPRMC,085055.000,A,0000.0000,N,00000.0000,E,0.00,000.00,060515,,,A*64\r\n\r\nOK\r\n
[ 08:50:57.504 ] [27:INFO] cmd: ATS89?*47C6
[ 08:50:57.506 ] [27:INFO] res: \r\n00001\r\n\r\nOK\r\n
[ 08:50:57.506 ] [27:INFO] cmd: AT%GPS=30,2,"RMC","GGA"*D90A
[ 08:50:57.510 ] [27:INFO] res: \r\n%GPS: $GPGGA,085057.000,0000.0000,N,00000.0000,E,1,05,3.0,0.00,M,,,,0000*36\r\n$GPRMC,085057.000,A,0000.0000,N,00000.0000,E,0.00,000.00,060515,,,A*66\r\n\r\nOK\r\n
[ 08:50:57.612 ] [27:INFO] cmd: AT%EVNT=3,1*BC22
[ 08:50:57.616 ] [27:INFO] res: \r\n%EVNT: 24,16777215,0,452595057,3,1,4,63714,0,0,0,0,0,0,0,0,0,0,0,0,0,0,0,0,0,0,257,0,0,0,0\r\n\r\nOK\r\n
[ 08:50:57.618 ] [27:INFO] cmd: AT%EVNT=3,1*BC22
[ 08:50:57.621 ] [27:INFO] res: \r\n%EVNT: 24,16777215,0,452595057,3,1,4,63714,0,0,0,0,0,0,0,0,0,0,0,0,0,0,0,0,0,0,257,0,0,0,0\r\n\r\nOK\r\n
[ 08:50:59.519 ] [27:INFO] cmd: ATS89?*47C6
[ 08:50:59.521 ] [27:INFO] res: \r\n00001\r\n\r\nOK\r\n
[ 08:50:59.521 ] [27:INFO] cmd: AT%GPS=30,2,"RMC","GGA"*D90A
[ 08:50:59.525 ] [27:INFO] res: \r\n%GPS: $GPGGA,085059.000,0000.0000,N,00000.0000,E,1,05,3.0,0.00,M,,,,0000*38\r\n$GPRMC,085059.000,A,0000.0000,N,00000.0000,E,0.00,000.00,060515,,,A*68\r\n\r\nOK\r\n
[ 08:51:01.531 ] [27:INFO] cmd: ATS89?*47C6
[ 08:51:01.533 ] [27:INFO] res: \r\n00001\r\n\r\nOK\r\n
[ 08:51:01.534 ] [27:INFO] cmd: AT%GPS=30,2,"RMC","GGA"*D90A
[ 08:51:01.537 ] [27:INFO] res: \r\n%GPS: $GPGGA,085101.000,0000.0000,N,00000.0000,E,1,05,3.0,0.00,M,,,,0000*34\r\n$GPRMC,085101.000,A,0000.0000,N,00000.0000,E,0.00,000.00,060515,,,A*64\r\n\r\nOK\r\n
[ 08:51:03.541 ] [27:INFO] cmd: ATS89?*47C6
[ 08:51:03.546 ] [27:INFO] res: \r\n00001\r\n\r\nOK\r\n
[ 08:51:03.546 ] [27:INFO] cmd: AT%GPS=30,2,"RMC","GGA"*D90A
[ 08:51:03.552 ] [27:INFO] res: \r\n%GPS: $GPGGA,085103.000,0000.0000,N,00000.0000,E,1,05,3.0,0.00,M,,,,0000*36\r\n$GPRMC,085103.000,A,0000.0000,N,00000.0000,E,0.00,000.00,060515,,,A*66\r\n\r\nOK\r\n
[ 08:51:05.554 ] [27:INFO] cmd: ATS89?*47C6
[ 08:51:05.556 ] [27:INFO] res: \r\n00001\r\n\r\nOK\r\n
[ 08:51:05.556 ] [27:INFO] cmd: AT%GPS=30,2,"RMC","GGA"*D90A
[ 08:51:05.559 ] [27:INFO] res: \r\n%GPS: $GPGGA,085105.000,0000.0000,N,00000.0000,E,1,05,3.0,0.00,M,,,,0000*30\r\n$GPRMC,085105.000,A,0000.0000,N,00000.0000,E,0.00,000.00,060515,,,A*60\r\n\r\nOK\r\n
[ 08:51:07.562 ] [27:INFO] cmd: AT%EVNT=3,1*BC22
[ 08:51:07.566 ] [27:INFO] res: \r\n%EVNT: 24,16777215,0,452595067,3,1,4,63734,0,0,0,0,0,0,0,0,0,0,0,0,0,0,0,0,0,0,257,0,0,0,0\r\n\r\nOK\r\n
[ 08:51:07.568 ] [115:INFO] Debouncing GpsBlocked=true for 1s
[ 08:51:07.568 ] [27:INFO] cmd: AT%EVNT=3,1*BC22
[ 08:51:07.571 ] [27:INFO] res: \r\n%EVNT: 24,16777215,0,452595067,3,1,4,63734,0,0,0,0,0,0,0,0,0,0,0,0,0,0,0,0,0,0,257,0,0,0,0\r\n\r\nOK\r\n
[ 08:51:07.573 ] [27:INFO] cmd: ATS89?*47C6
[ 08:51:07.575 ] [27:INFO] res: \r\n00001\r\n\r\nOK\r\n
[ 08:51:07.575 ] [27:INFO] cmd: AT%GPS=30,2,"RMC","GGA"*D90A
[ 08:51:07.579 ] [27:INFO] res: \r\n%GPS: $GPGGA,085107.000,0000.0000,N,00000.0000,E,1,05,3.0,0.00,M,,,,0000*32\r\n$GPRMC,085107.000,A,0000.0000,N,00000.0000,E,0.00,000.00,060515,,,A*62\r\n\r\nOK\r\n
[ 08:51:09.578 ] [27:INFO] cmd: ATS89?*47C6
[ 08:51:09.580 ] [27:INFO] res: \r\n00001\r\n\r\nOK\r\n
[ 08:51:09.580 ] [27:INFO] cmd: AT%GPS=30,2,"RMC","GGA"*D90A
[ 08:51:09.584 ] [27:INFO] res: \r\n%GPS: $GPGGA,085109.000,0000.0000,N,00000.0000,E,1,05,3.0,0.00,M,,,,0000*3C\r\n$GPRMC,085109.000,A,0000.0000,N,00000.0000,E,0.00,000.00,060515,,,A*6C\r\n\r\nOK\r\n
[ 08:51:11.593 ] [27:INFO] cmd: ATS89?*47C6
[ 08:51:11.594 ] [27:INFO] res: \r\n00001\r\n\r\nOK\r\n
[ 08:51:11.595 ] [27:INFO] cmd: AT%GPS=30,2,"RMC","GGA"*D90A
[ 08:51:11.600 ] [27:INFO] res: \r\n%GPS: $GPGGA,085111.000,0000.0000,N,00000.0000,E,1,05,3.0,0.00,M,,,,0000*35\r\n$GPRMC,085111.000,A,0000.0000,N,00000.0000,E,0.00,000.00,060515,,,A*65\r\n\r\nOK\r\n
[ 08:51:13.604 ] [27:INFO] cmd: ATS89?*47C6
[ 08:51:13.605 ] [27:INFO] res: \r\n00001\r\n\r\nOK\r\n
[ 08:51:13.606 ] [27:INFO] cmd: AT%GPS=30,2,"RMC","GGA"*D90A
[ 08:51:13.610 ] [27:INFO] res: \r\n%GPS: $GPGGA,085113.000,0000.0000,N,00000.0000,E,1,05,3.0,0.00,M,,,,0000*37\r\n$GPRMC,085113.000,A,0000.0000,N,00000.0000,E,0.00,000.00,060515,,,A*67\r\n\r\nOK\r\n
[ 08:51:15.615 ] [27:INFO] cmd: ATS89?*47C6
[ 08:51:15.617 ] [27:INFO] res: \r\n00001\r\n\r\nOK\r\n
[ 08:51:15.618 ] [27:INFO] cmd: AT%GPS=30,2,"RMC","GGA"*D90A
[ 08:51:15.621 ] [27:INFO] res: \r\n%GPS: $GPGGA,085115.000,0000.0000,N,00000.0000,E,1,05,3.0,0.00,M,,,,0000*31\r\n$GPRMC,085115.000,A,0000.0000,N,00000.0000,E,0.00,000.00,060515,,,A*61\r\n\r\nOK\r\n
[ 08:51:17.524 ] [27:INFO] cmd: AT%EVNT=3,1*BC22
[ 08:51:17.527 ] [27:INFO] res: \r\n%EVNT: 24,16777215,0,452595077,3,1,4,63754,0,0,0,0,0,0,0,0,0,0,0,0,0,0,0,0,0,0,257,0,0,0,0\r\n\r\nOK\r\n
[ 08:51:17.528 ] [115:INFO] Debouncing GpsBlocked=true for 1s
[ 08:51:17.529 ] [27:INFO] cmd: AT%EVNT=3,1*BC22
[ 08:51:17.532 ] [27:INFO] res: \r\n%EVNT: 24,16777215,0,452595077,3,1,4,63754,0,0,0,0,0,0,0,0,0,0,0,0,0,0,0,0,0,0,257,0,0,0,0\r\n\r\nOK\r\n
[ 08:51:17.628 ] [27:INFO] cmd: ATS89?*47C6
[ 08:51:17.630 ] [27:INFO] res: \r\n00001\r\n\r\nOK\r\n
[ 08:51:17.630 ] [27:INFO] cmd: AT%GPS=30,2,"RMC","GGA"*D90A
[ 08:51:17.634 ] [27:INFO] res: \r\n%GPS: $GPGGA,085117.000,0000.0000,N,00000.0000,E,1,05,3.0,0.00,M,,,,0000*33\r\n$GPRMC,085117.000,A,0000.0000,N,00000.0000,E,0.00,000.00,060515,,,A*63\r\n\r\nOK\r\n
[ 08:51:19.641 ] [27:INFO] cmd: ATS89?*47C6
[ 08:51:19.643 ] [27:INFO] res: \r\n00001\r\n\r\nOK\r\n
[ 08:51:19.643 ] [27:INFO] cmd: AT%GPS=30,2,"RMC","GGA"*D90A
[ 08:51:19.647 ] [27:INFO] res: \r\n%GPS: $GPGGA,085119.000,0000.0000,N,00000.0000,E,1,05,3.0,0.00,M,,,,0000*3D\r\n$GPRMC,085119.000,A,0000.0000,N,00000.0000,E,0.00,000.00,060515,,,A*6D\r\n\r\nOK\r\n
[ 08:51:21.654 ] [27:INFO] cmd: ATS89?*47C6
[ 08:51:21.656 ] [27:INFO] res: \r\n00001\r\n\r\nOK\r\n
[ 08:51:21.656 ] [27:INFO] cmd: AT%GPS=30,2,"RMC","GGA"*D90A
[ 08:51:21.659 ] [27:INFO] res: \r\n%GPS: $GPGGA,085121.000,0000.0000,N,00000.0000,E,1,05,3.0,0.00,M,,,,0000*36\r\n$GPRMC,085121.000,A,0000.0000,N,00000.0000,E,0.00,000.00,060515,,,A*66\r\n\r\nOK\r\n
[ 08:51:23.665 ] [27:INFO] cmd: ATS89?*47C6
[ 08:51:23.667 ] [27:INFO] res: \r\n00001\r\n\r\nOK\r\n
[ 08:51:23.667 ] [27:INFO] cmd: AT%GPS=30,2,"RMC","GGA"*D90A
[ 08:51:23.670 ] [27:INFO] res: \r\n%GPS: $GPGGA,085123.000,0000.0000,N,00000.0000,E,1,05,3.0,0.00,M,,,,0000*34\r\n$GPRMC,085123.000,A,0000.0000,N,00000.0000,E,0.00,000.00,060515,,,A*64\r\n\r\nOK\r\n
[ 08:51:25.680 ] [27:INFO] cmd: ATS89?*47C6
[ 08:51:25.682 ] [27:INFO] res: \r\n00001\r\n\r\nOK\r\n
[ 08:51:25.682 ] [27:INFO] cmd: AT%GPS=30,2,"RMC","GGA"*D90A
[ 08:51:25.686 ] [27:INFO] res: \r\n%GPS: $GPGGA,085125.000,0000.0000,N,00000.0000,E,1,05,3.0,0.00,M,,,,0000*32\r\n$GPRMC,085125.000,A,0000.0000,N,00000.0000,E,0.00,000.00,060515,,,A*62\r\n\r\nOK\r\n
[ 08:51:27.489 ] [27:INFO] cmd: AT%EVNT=3,1*BC22
[ 08:51:27.492 ] [27:INFO] res: \r\n%EVNT: 24,16777215,0,452595087,3,1,4,63774,0,0,0,0,0,0,0,0,0,0,0,0,0,0,0,0,0,0,257,0,0,0,0\r\n\r\nOK\r\n
[ 08:51:27.494 ] [115:INFO] Debouncing GpsBlocked=true for 1s
[ 08:51:27.495 ] [27:INFO] cmd: AT%EVNT=3,1*BC22
[ 08:51:27.498 ] [27:INFO] res: \r\n%EVNT: 24,16777215,0,452595087,3,1,4,63774,0,0,0,0,0,0,0,0,0,0,0,0,0,0,0,0,0,0,257,0,0,0,0\r\n\r\nOK\r\n
[ 08:51:27.691 ] [27:INFO] cmd: ATS89?*47C6
[ 08:51:27.693 ] [27:INFO] res: \r\n00001\r\n\r\nOK\r\n
[ 08:51:27.693 ] [27:INFO] cmd: AT%GPS=30,2,"RMC","GGA"*D90A
[ 08:51:27.697 ] [27:INFO] res: \r\n%GPS: $GPGGA,085127.000,0000.0000,N,00000.0000,E,1,05,3.0,0.00,M,,,,0000*30\r\n$GPRMC,085127.000,A,0000.0000,N,00000.0000,E,0.00,000.00,060515,,,A*60\r\n\r\nOK\r\n
[ 08:51:28.102 ] [18:INFO] completed log msg #14 (SIN=115), status=Success
[ 08:51:29.105 ] [115:INFO] Report 1. Next Std 60s Acc 60s
[ 08:51:29.110 ] [18:INFO] queuing RL msg #15 (SIN=115, bits=152)
[ 08:51:29.111 ] [18:INFO] sending RL msg #15 trn #1 (SIN=115, bits=152)
[ 08:51:29.113 ] [27:INFO] cmd: AT%MGRT="0000000F",3,115,3,FaqTrB4AAAAAAAAAWkeUAAA
[ 08:51:29.115 ] [27:INFO] res: \r\nOK\r\n
[ 08:51:29.702 ] [27:INFO] cmd: ATS89?*47C6
[ 08:51:29.704 ] [27:INFO] res: \r\n00001\r\n\r\nOK\r\n
[ 08:51:29.705 ] [27:INFO] cmd: AT%GPS=30,2,"RMC","GGA"*D90A
[ 08:51:29.708 ] [27:INFO] res: \r\n%GPS: $GPGGA,085129.000,0000.0000,N,00000.0000,E,1,05,3.0,0.00,M,,,,0000*3E\r\n$GPRMC,085129.000,A,0000.0000,N,00000.0000,E,0.00,000.00,060515,,,A*6E\r\n\r\nOK\r\n
[ 08:51:31.716 ] [27:INFO] cmd: ATS89?*47C6
[ 08:51:31.718 ] [27:INFO] res: \r\n00001\r\n\r\nOK\r\n
[ 08:51:31.719 ] [27:INFO] cmd: AT%GPS=30,2,"RMC","GGA"*D90A
[ 08:51:31.723 ] [27:INFO] res: \r\n%GPS: $GPGGA,085131.000,0000.0000,N,00000.0000,E,1,05,3.0,0.00,M,,,,0000*37\r\n$GPRMC,085131.000,A,0000.0000,N,00000.0000,E,0.00,000.00,060515,,,A*67\r\n\r\nOK\r\n
[ 08:51:33.727 ] [27:INFO] cmd: ATS89?*47C6
[ 08:51:33.731 ] [27:INFO] res: \r\n00001\r\n\r\nOK\r\n
[ 08:51:33.731 ] [27:INFO] cmd: AT%GPS=30,2,"RMC","GGA"*D90A
[ 08:51:33.735 ] [27:INFO] res: \r\n%GPS: $GPGGA,085133.000,0000.0000,N,00000.0000,E,1,05,3.0,0.00,M,,,,0000*35\r\n$GPRMC,085133.000,A,0000.0000,N,00000.0000,E,0.00,000.00,060515,,,A*65\r\n\r\nOK\r\n
[ 08:51:34.819 ] [27:INFO] cmd: ATS89?*47C6
[ 08:51:34.833 ] [27:INFO] res: \r\n00004\r\n\r\nOK\r\n
[ 08:51:34.833 ] [27:INFO] cmd: AT%MGRS*04F9
[ 08:51:34.835 ] [27:INFO] res: \r\n%MGRS: "0000000F",45.1,3,115,6,19,19\r\n\r\nOK\r\n
[ 08:51:34.837 ] [18:INFO] completed RL msg #15 (SIN=115), status=Success
[ 08:51:35.740 ] [27:INFO] cmd: ATS89?*47C6
[ 08:51:35.742 ] [27:INFO] res: \r\n00001\r\n\r\nOK\r\n
[ 08:51:35.743 ] [27:INFO] cmd: AT%GPS=30,2,"RMC","GGA"*D90A
[ 08:51:35.746 ] [27:INFO] res: \r\n%GPS: $GPGGA,085135.000,0000.0000,N,00000.0000,E,1,05,3.0,0.00,M,,,,0000*33\r\n$GPRMC,085135.000,A,0000.0000,N,00000.0000,E,0.00,000.00,060515,,,A*63\r\n\r\nOK\r\n
[ 08:51:37.449 ] [27:INFO] cmd: AT%EVNT=3,1*BC22
[ 08:51:37.461 ] [27:INFO] res: \r\n%EVNT: 24,16777215,0,452595097,3,1,4,63794,0,0,0,0,0,0,0,0,0,0,0,0,0,0,0,0,0,0,257,0,0,0,0\r\n\r\nOK\r\n
[ 08:51:37.465 ] [115:INFO] Debouncing GpsBlocked=true for 1s
[ 08:51:37.468 ] [27:INFO] cmd: AT%EVNT=3,1*BC22
[ 08:51:37.474 ] [27:INFO] res: \r\n%EVNT: 24,16777215,0,452595097,3,1,4,63794,0,0,0,0,0,0,0,0,0,0,0,0,0,0,0,0,0,0,257,0,0,0,0\r\n\r\nOK\r\n
[ 08:51:37.753 ] [27:INFO] cmd: ATS89?*47C6
[ 08:51:37.756 ] [27:INFO] res: \r\n00001\r\n\r\nOK\r\n
[ 08:51:37.756 ] [27:INFO] cmd: AT%GPS=30,2,"RMC","GGA"*D90A
[ 08:51:37.760 ] [27:INFO] res: \r\n%GPS: $GPGGA,085137.000,0000.0000,N,00000.0000,E,1,05,3.0,0.00,M,,,,0000*31\r\n$GPRMC,085137.000,A,0000.0000,N,00000.0000,E,0.00,000.00,060515,,,A*61\r\n\r\nOK\r\n
[ 08:51:39.764 ] [27:INFO] cmd: ATS89?*47C6
[ 08:51:39.766 ] [27:INFO] res: \r\n00001\r\n\r\nOK\r\n
[ 08:51:39.767 ] [27:INFO] cmd: AT%GPS=30,2,"RMC","GGA"*D90A
[ 08:51:39.770 ] [27:INFO] res: \r\n%GPS: $GPGGA,085139.000,0000.0000,N,00000.0000,E,1,05,3.0,0.00,M,,,,0000*3F\r\n$GPRMC,085139.000,A,0000.0000,N,00000.0000,E,0.00,000.00,060515,,,A*6F\r\n\r\nOK\r\n
[ 08:51:41.778 ] [27:INFO] cmd: ATS89?*47C6
[ 08:51:41.782 ] [27:INFO] res: \r\n00001\r\n\r\nOK\r\n
[ 08:51:41.782 ] [27:INFO] cmd: AT%GPS=30,2,"RMC","GGA"*D90A
[ 08:51:41.789 ] [27:INFO] res: \r\n%GPS: $GPGGA,085141.000,0000.0000,N,00000.0000,E,1,05,3.0,0.00,M,,,,0000*30\r\n$GPRMC,085141.000,A,0000.0000,N,00000.0000,E,0.00,000.00,060515,,,A*60\r\n\r\nOK\r\n
[ 08:51:43.790 ] [27:INFO] cmd: ATS89?*47C6
[ 08:51:43.792 ] [27:INFO] res: \r\n00001\r\n\r\nOK\r\n
[ 08:51:43.792 ] [27:INFO] cmd: AT%GPS=30,2,"RMC","GGA"*D90A
[ 08:51:43.796 ] [27:INFO] res: \r\n%GPS: $GPGGA,085143.000,0000.0000,N,00000.0000,E,1,05,3.0,0.00,M,,,,0000*32\r\n$GPRMC,085143.000,A,0000.0000,N,00000.0000,E,0.00,000.00,060515,,,A*62\r\n\r\nOK\r\n
[ 08:51:45.804 ] [27:INFO] cmd: ATS89?*47C6
[ 08:51:45.806 ] [27:INFO] res: \r\n00001\r\n\r\nOK\r\n
[ 08:51:45.806 ] [27:INFO] cmd: AT%GPS=30,2,"RMC","GGA"*D90A
[ 08:51:45.809 ] [27:INFO] res: \r\n%GPS: $GPGGA,085145.000,0000.0000,N,00000.0000,E,1,05,3.0,0.00,M,,,,0000*34\r\n$GPRMC,085145.000,A,0000.0000,N,00000.0000,E,0.00,000.00,060515,,,A*64\r\n\r\nOK\r\n
[ 08:51:47.412 ] [27:INFO] cmd: AT%EVNT=3,1*BC22
[ 08:51:47.416 ] [27:INFO] res: \r\n%EVNT: 24,16777215,0,452595107,3,1,4,63814,0,0,0,0,0,0,0,0,0,0,0,0,0,0,0,0,0,0,257,0,0,0,0\r\n\r\nOK\r\n
[ 08:51:47.417 ] [115:INFO] Debouncing GpsBlocked=true for 1s
[ 08:51:47.418 ] [27:INFO] cmd: AT%EVNT=3,1*BC22
[ 08:51:47.421 ] [27:INFO] res: \r\n%EVNT: 24,16777215,0,452595107,3,1,4,63814,0,0,0,0,0,0,0,0,0,0,0,0,0,0,0,0,0,0,257,0,0,0,0\r\n\r\nOK\r\n
[ 08:51:47.815 ] [27:INFO] cmd: ATS89?*47C6
[ 08:51:47.817 ] [27:INFO] res: \r\n00001\r\n\r\nOK\r\n
[ 08:51:47.817 ] [27:INFO] cmd: AT%GPS=30,2,"RMC","GGA"*D90A
[ 08:51:47.823 ] [27:INFO] res: \r\n%GPS: $GPGGA,085147.000,0000.0000,N,00000.0000,E,1,05,3.0,0.00,M,,,,0000*36\r\n$GPRMC,085147.000,A,0000.0000,N,00000.0000,E,0.00,000.00,060515,,,A*66\r\n\r\nOK\r\n
[ 08:51:49.827 ] [27:INFO] cmd: ATS89?*47C6
[ 08:51:49.829 ] [27:INFO] res: \r\n00001\r\n\r\nOK\r\n
[ 08:51:49.829 ] [27:INFO] cmd: AT%GPS=30,2,"RMC","GGA"*D90A
[ 08:51:49.833 ] [27:INFO] res: \r\n%GPS: $GPGGA,085149.000,0000.0000,N,00000.0000,E,1,05,3.0,0.00,M,,,,0000*38\r\n$GPRMC,085149.000,A,0000.0000,N,00000.0000,E,0.00,000.00,060515,,,A*68\r\n\r\nOK\r\n
[ 08:51:51.839 ] [27:INFO] cmd: ATS89?*47C6
[ 08:51:51.843 ] [27:INFO] res: \r\n00001\r\n\r\nOK\r\n
[ 08:51:51.843 ] [27:INFO] cmd: AT%GPS=30,2,"RMC","GGA"*D90A
[ 08:51:51.846 ] [27:INFO] res: \r\n%GPS: $GPGGA,085151.000,0000.0000,N,00000.0000,E,1,05,3.0,0.00,M,,,,0000*31\r\n$GPRMC,085151.000,A,0000.0000,N,00000.0000,E,0.00,000.00,060515,,,A*61\r\n\r\nOK\r\n
[ 08:51:53.854 ] [27:INFO] cmd: ATS89?*47C6
[ 08:51:53.856 ] [27:INFO] res: \r\n00001\r\n\r\nOK\r\n
[ 08:51:53.856 ] [27:INFO] cmd: AT%GPS=30,2,"RMC","GGA"*D90A
[ 08:51:53.859 ] [27:INFO] res: \r\n%GPS: $GPGGA,085153.000,0000.0000,N,00000.0000,E,1,05,3.0,0.00,M,,,,0000*33\r\n$GPRMC,085153.000,A,0000.0000,N,00000.0000,E,0.00,000.00,060515,,,A*63\r\n\r\nOK\r\n
[ 08:51:55.865 ] [27:INFO] cmd: ATS89?*47C6
[ 08:51:55.867 ] [27:INFO] res: \r\n00001\r\n\r\nOK\r\n
[ 08:51:55.867 ] [27:INFO] cmd: AT%GPS=30,2,"RMC","GGA"*D90A
[ 08:51:55.870 ] [27:INFO] res: \r\n%GPS: $GPGGA,085155.000,0000.0000,N,00000.0000,E,1,05,3.0,0.00,M,,,,0000*35\r\n$GPRMC,085155.000,A,0000.0000,N,00000.0000,E,0.00,000.00,060515,,,A*65\r\n\r\nOK\r\n
[ 08:51:57.373 ] [27:INFO] cmd: AT%EVNT=3,1*BC22
[ 08:51:57.377 ] [27:INFO] res: \r\n%EVNT: 24,16777215,0,452595117,3,1,4,63834,0,0,0,0,0,0,0,0,0,0,0,0,0,0,0,0,0,0,257,0,0,0,0\r\n\r\nOK\r\n
[ 08:51:57.378 ] [115:INFO] Debouncing GpsBlocked=true for 1s
[ 08:51:57.379 ] [27:INFO] cmd: AT%EVNT=3,1*BC22
[ 08:51:57.385 ] [27:INFO] res: \r\n%EVNT: 24,16777215,0,452595117,3,1,4,63834,0,0,0,0,0,0,0,0,0,0,0,0,0,0,0,0,0,0,257,0,0,0,0\r\n\r\nOK\r\n
[ 08:51:57.877 ] [27:INFO] cmd: ATS89?*47C6
[ 08:51:57.879 ] [27:INFO] res: \r\n00001\r\n\r\nOK\r\n
[ 08:51:57.879 ] [27:INFO] cmd: AT%GPS=30,2,"RMC","GGA"*D90A
[ 08:51:57.883 ] [27:INFO] res: \r\n%GPS: $GPGGA,085157.000,0000.0000,N,00000.0000,E,1,05,3.0,0.00,M,,,,0000*37\r\n$GPRMC,085157.000,A,0000.0000,N,00000.0000,E,0.00,000.00,060515,,,A*67\r\n\r\nOK\r\n
[ 08:51:59.891 ] [27:INFO] cmd: ATS89?*47C6
[ 08:51:59.892 ] [27:INFO] res: \r\n00001\r\n\r\nOK\r\n
[ 08:51:59.893 ] [27:INFO] cmd: AT%GPS=30,2,"RMC","GGA"*D90A
[ 08:51:59.897 ] [27:INFO] res: \r\n%GPS: $GPGGA,085159.000,0000.0000,N,00000.0000,E,1,05,3.0,0.00,M,,,,0000*39\r\n$GPRMC,085159.000,A,0000.0000,N,00000.0000,E,0.00,000.00,060515,,,A*69\r\n\r\nOK\r\n
[ 08:52:01.901 ] [27:INFO] cmd: ATS89?*47C6
